{"_id":{"$oid":"5b3de88eef7b55041d874727"},"address":"324 Main St","city":"Massena","zonal_area":"NORTHEAST-US","province":"NY","country":"US","latitude":44.9213,"longitude":-74.89021,"name":"McDonald's","Rating":3,"postalCode":13662,"websites":"http://mcdonalds.com,http://www.mcdonalds.com/?cid=RF:YXT_FM:TP::Yext:Referral","uid":1.0}
{"_id":{"$oid":"5b3de88eef7b55041d874728"},"address":"530 Clinton Ave","city":"Washington Court House","zonal_area":"MIDWEST-US","province":"OH","country":"US","latitude":39.53255,"longitude":-83.44526,"name":"Wendy's","Rating":4,"postalCode":43160,"websites":"http://www.wendys.com","uid":2.0}
{"_id":{"$oid":"5b3de88eef7b55041d874729"},"address":"408 Market Square Dr","city":"Maysville","zonal_area":"SOUTHEAST-US","province":"KY","country":"US","latitude":38.62736,"longitude":-83.79141,"name":"Frisch's Big Boy","Rating":3,"postalCode":41056,"websites":"http://www.frischs.com,https://www.frischs.com/location/maysville-ky/","uid":3.0}
{"_id":{"$oid":"5b3de88eef7b55041d87472a"},"address":"139 Columbus Rd","city":"Athens","zonal_area":"MIDWEST-US","province":"OH","country":"US","latitude":39.35155,"longitude":-82.09728,"name":"OMG! Rotisserie","Rating":4,"postalCode":45701,"websites":"http://www.omgrotisserie.com,http://omgrotisserie.com","uid":4.0}
{"_id":{"$oid":"5b3de88eef7b55041d87472b"},"address":"6098 State Highway 37","city":"Massena","zonal_area":"NORTHEAST-US","province":"NY","country":"US","latitude":44.95008,"longitude":-74.84553,"name":"McDonald's","Rating":4,"postalCode":13662,"websites":"http://mcdonalds.com,http://www.mcdonalds.com/?cid=RF:YXT_FM:TP::Yext:Referral","uid":5.0}
{"_id":{"$oid":"5b3de88eef7b55041d87472c"},"address":"4182 Tonya Trl","city":"Hamilton","zonal_area":"MIDWEST-US","province":"OH","country":"US","latitude":39.4176,"longitude":-84.47641,"name":"Domino's Pizza","Rating":5,"postalCode":45011,"websites":"https://www.dominos.com/en/?redirect=homepage,https://www.dominos.com/en/?redirect=homepageandutm_source=locallistingsandutm_medium=loclistandutm_campaign=localmaps,https://www.dominos.com/en/?redirect=homepageandutm_source=yextandutm_medium=loclistandutm_campaign=localmaps","uid":6.0}
{"_id":{"$oid":"5b3de88eef7b55041d87472d"},"address":"590 S Main St","city":"Englewood","zonal_area":"MIDWEST-US","province":"OH","country":"US","latitude":39.86969,"longitude":-84.29358,"name":"Domino's Pizza","Rating":1,"postalCode":45322,"websites":"https://www.dominos.com/en/?redirect=homepageandutm_source=locallistingsandutm_medium=loclistandutm_campaign=localmaps,https://www.dominos.com/en/?redirect=homepageandutm_source=yextandutm_medium=loclistandutm_campaign=localmaps","uid":7.0}
{"_id":{"$oid":"5b3de88eef7b55041d87472e"},"address":"401 N Jennings St","city":"Saluda","zonal_area":"SOUTHEAST-US","province":"SC","country":"US","latitude":34.00598,"longitude":-81.7704,"name":"McDonald's","Rating":5,"postalCode":29138,"websites":"http://www.mcdonalds.com","uid":8.0}
{"_id":{"$oid":"5b3de88eef7b55041d87472f"},"address":"205 W Church St","city":"Batesburg","zonal_area":"SOUTHEAST-US","province":"SC","country":"US","latitude":33.91335,"longitude":-81.5333,"name":"Wendy's","Rating":5,"postalCode":29006,"websites":"http://www.wendys.com","uid":9.0}
{"_id":{"$oid":"5b3de88eef7b55041d874730"},"address":"2711 W. Kings Highway Ste. 18","city":"Paragould","zonal_area":"SOUTHEAST-US","province":"AR","country":"US","latitude":36.06107,"longitude":-90.52325,"name":"Pizza Hut","Rating":5,"postalCode":72450,"websites":"http://www.pizzahut.com","uid":10.0}
{"_id":{"$oid":"5b3de88eef7b55041d874731"},"address":"613 W Center St","city":"Sheridan","zonal_area":"SOUTHEAST-US","province":"AR","country":"US","latitude":34.30687,"longitude":-92.40784,"name":"SONIC Drive In","Rating":3,"postalCode":72150,"websites":"https://locations.sonicdrivein.com/ar/sheridan/613-w--center-street.html","uid":11.0}
{"_id":{"$oid":"5b3de88eef7b55041d874732"},"address":"512 Highway 425 S Lot B","city":"Monticello","zonal_area":"SOUTHEAST-US","province":"AR","country":"US","latitude":33.61937,"longitude":-91.80232,"name":"Domino's Pizza","Rating":5,"postalCode":71655,"websites":"https://www.dominos.com/en/?redirect=homepage,https://www.dominos.com/en/?redirect=homepageandutm_source=locallistingsandutm_medium=loclistandutm_campaign=localmaps","uid":12.0}
{"_id":{"$oid":"5b3de88eef7b55041d874733"},"address":"1535 NW 50th St","city":"Oklahoma City","zonal_area":"SOUTHWEST-US","province":"OK","country":"US","latitude":35.52234,"longitude":-97.5382,"name":"McDonald's","Rating":3,"postalCode":73118,"websites":"http://mcdonalds.com,http://www.mcdonalds.com/?cid=RF:YXT_FM:TP::Yext:Referral","uid":13.0}
{"_id":{"$oid":"5b3de88eef7b55041d874734"},"address":"66 14th St.","city":"Tell City","zonal_area":"MIDWEST-US","province":"IN","country":"US","latitude":37.941032,"longitude":-86.762115,"name":"Long John Silver's","Rating":5,"postalCode":47586,"websites":"http://www.ljsilvers.com","uid":14.0}
{"_id":{"$oid":"5b3de88eef7b55041d874735"},"address":"301 University Blvd","city":"Louisville","zonal_area":"SOUTHEAST-US","province":"KY","country":"US","latitude":38.21999,"longitude":-85.764824,"name":"McDonald's","Rating":3,"postalCode":40208,"websites":"http://mcdonalds.com,http://www.mcdonalds.com/?cid=RF:YXT_FM:TP::Yext:Referral","uid":15.0}
{"_id":{"$oid":"5b3de88eef7b55041d874736"},"address":"125 Towne Center Dr","city":"Lexington","zonal_area":"SOUTHEAST-US","province":"KY","country":"US","latitude":38.06753,"longitude":-84.53043,"name":"Domino's Pizza","Rating":2,"postalCode":40511,"websites":"https://www.dominos.com/en/?redirect=homepageandutm_source=locallistingsandutm_medium=loclistandutm_campaign=localmaps,https://www.dominos.com/en/?redirect=homepage,https://www.dominos.com/en/?redirect=homepageandutm_source=yextandutm_medium=loclistandutm_campaign=localmaps","uid":16.0}
{"_id":{"$oid":"5b3de88eef7b55041d874737"},"address":"5812 NW Expressway","city":"Oklahoma City","zonal_area":"SOUTHWEST-US","province":"OK","country":"US","latitude":35.54815,"longitude":-97.61717,"name":"McDonald's","Rating":2,"postalCode":73132,"websites":"http://mcdonalds.com,http://www.mcdonalds.com/?cid=RF:YXT_FM:TP::Yext:Referral","uid":17.0}
{"_id":{"$oid":"5b3de88eef7b55041d874738"},"address":"101 Thomas Garst Ln","city":"Leland","zonal_area":"SOUTHEAST-US","province":"NC","country":"US","latitude":34.23389,"longitude":-77.99544,"name":"Taco Bell","Rating":3,"postalCode":28451,"websites":"http://www.tacobell.com,https://locations.tacobell.com/nc/leland/101-thomas-garst-lane.html?utm_source=yextandutm_campaign=yextpowerlistingsandutm_medium=referralandutm_term=030564andutm_content=website","uid":18.0}
{"_id":{"$oid":"5b3de88eef7b55041d874739"},"address":"1111 New Pointe Blvd","city":"Leland","zonal_area":"SOUTHEAST-US","province":"NC","country":"US","latitude":34.21188,"longitude":-78.02454,"name":"McDonald's","Rating":1,"postalCode":28451,"websites":"http://mcdonalds.com,http://www.mcdonalds.com/?cid=RF:YXT_FM:TP::Yext:Referral","uid":19.0}
{"_id":{"$oid":"5b3de88eef7b55041d87473a"},"address":"782 Old Hickory Blvd Ste 120","city":"Brentwood","zonal_area":"SOUTHEAST-US","province":"TN","country":"US","latitude":36.04222,"longitude":-86.77995,"name":"Qdoba Mexican Grill","Rating":2,"postalCode":37027,"websites":"http://www.qdoba.com,https://locations.qdoba.com/us/tn/brentwood/782-old-hickory-blvd.html","uid":20.0}
{"_id":{"$oid":"5b3de88eef7b55041d87473b"},"address":"108 Village Rd NE","city":"Leland","zonal_area":"SOUTHEAST-US","province":"NC","country":"US","latitude":34.234477,"longitude":-78.000649,"name":"McDonald's","Rating":1,"postalCode":28451,"websites":"http://mcdonalds.com,http://www.mcdonalds.com/?cid=RF:YXT_FM:TP::Yext:Referral","uid":21.0}
{"_id":{"$oid":"5b3de88eef7b55041d87473c"},"address":"1116 Old Highway 60","city":"Hardinsburg","zonal_area":"SOUTHEAST-US","province":"KY","country":"US","latitude":37.792641,"longitude":-86.492762,"name":"McDonald's","Rating":1,"postalCode":40143,"websites":"http://mcdonalds.com,http://www.mcdonalds.com/?cid=RF:YXT_FM:TP::Yext:Referral","uid":22.0}
{"_id":{"$oid":"5b3de88eef7b55041d87473d"},"address":"1423 Southwest Pkwy","city":"Wichita Falls","zonal_area":"SOUTHWEST-US","province":"TX","country":"US","latitude":33.85371,"longitude":-98.50065,"name":"McDonald's","Rating":1,"postalCode":76302,"websites":"http://www.mcdonalds.com/?cid=RF:YXT_FM:TP::Yext:Referral,http://mcdonalds.com","uid":23.0}
{"_id":{"$oid":"5b3de88eef7b55041d87473e"},"address":"908 Padre Blvd","city":"South Padre Island","zonal_area":"SOUTHWEST-US","province":"TX","country":"US","latitude":26.09105,"longitude":-97.1643,"name":"McDonald's","Rating":3,"postalCode":78597,"websites":"http://www.mcdonalds.com/?cid=RF:YXT_FM:TP::Yext:Referral,http://mcdonalds.com","uid":24.0}
{"_id":{"$oid":"5b3de88eef7b55041d87473f"},"address":"1131n N Main St","city":"Miami","zonal_area":"SOUTHWEST-US","province":"OK","country":"US","latitude":36.88826,"longitude":-94.87766,"name":"McDonald's","Rating":2,"postalCode":74354,"websites":"http://www.mcdonalds.com/?cid=RF:YXT_FM:TP::Yext:Referral,http://mcdonalds.com","uid":25.0}
{"_id":{"$oid":"5b3de88eef7b55041d874740"},"address":"3401 Hwy 165 North","city":"Pineville","zonal_area":"SOUTHEAST-US","province":"LA","country":"US","latitude":31.3626,"longitude":-92.41343,"name":"Pizza Hut","Rating":4,"postalCode":71360,"websites":"http://www.pizzahut.com","uid":26.0}
{"_id":{"$oid":"5b3de88eef7b55041d874741"},"address":"1631 E Madison Ave","city":"Bastrop","zonal_area":"SOUTHEAST-US","province":"LA","country":"US","latitude":32.77992,"longitude":-91.89477,"name":"Sonic Drive-In","Rating":5,"postalCode":71220,"websites":"https://locations.sonicdrivein.com/la/bastrop/1631-e--madison.html","uid":27.0}
{"_id":{"$oid":"5b3de88eef7b55041d874742"},"address":"301 S Lynn Riggs Blvd","city":"Claremore","zonal_area":"SOUTHWEST-US","province":"OK","country":"US","latitude":36.31069,"longitude":-95.61759,"name":"Domino's Pizza","Rating":1,"postalCode":74017,"websites":"https://www.dominos.com/en/?redirect=homepage,https://www.dominos.com/en/?redirect=homepageandutm_source=locallistingsandutm_medium=loclistandutm_campaign=localmaps","uid":28.0}
{"_id":{"$oid":"5b3de88eef7b55041d874743"},"address":"601 E Lincolnway","city":"Minerva","zonal_area":"MIDWEST-US","province":"OH","country":"US","latitude":40.732,"longitude":-81.09812,"name":"McDonald's","Rating":1,"postalCode":44657,"websites":"http://www.mcdonalds.com,http://www.mcdonalds.com/?cid=RF:YXT_FM:TP::Yext:Referral","uid":29.0}
{"_id":{"$oid":"5b3de88eef7b55041d874744"},"address":"3211 S 4th St","city":"Leavenworth","zonal_area":"MIDWEST-US","province":"KS","country":"US","latitude":39.28532,"longitude":-94.90441,"name":"SONIC Drive In","Rating":1,"postalCode":66048,"websites":"https://locations.sonicdrivein.com/ks/leavenworth/3211-s-fourth-street.html","uid":30.0}
{"_id":{"$oid":"5b3de88eef7b55041d874745"},"address":"105 Business Loop W","city":"Jamestown","zonal_area":"MIDWEST-US","province":"ND","country":"US","latitude":46.898997,"longitude":-98.707788,"name":"Taco Bell","Rating":2,"postalCode":58401,"websites":"http://www.tacobell.com,https://locations.tacobell.com/nd/jamestown/105-business-loop-west.html?utm_source=yextandutm_campaign=yextpowerlistingsandutm_medium=referralandutm_term=019434andutm_content=website","uid":31.0}
{"_id":{"$oid":"5b3de88eef7b55041d874746"},"address":"1531 University Dr S","city":"Fargo","zonal_area":"MIDWEST-US","province":"ND","country":"US","latitude":46.85659,"longitude":-96.79863,"name":"Domino's Pizza","Rating":4,"postalCode":58103,"websites":"https://www.dominos.com/en/?redirect=homepage,https://www.dominos.com/en/?redirect=homepageandutm_source=locallistingsandutm_medium=loclistandutm_campaign=localmaps,https://www.dominos.com/en/?redirect=homepageandutm_source=yextandutm_medium=loclistandutm_campaign=localmaps","uid":32.0}
{"_id":{"$oid":"5b3de88eef7b55041d874747"},"address":"718 10th St SE","city":"Jamestown","zonal_area":"MIDWEST-US","province":"ND","country":"US","latitude":46.89896,"longitude":-98.6984,"name":"Taco John's","Rating":3,"postalCode":58401,"websites":"https://www.tacojohns.com,http://locations.tacojohns.com/nd/jamestown/718-10th-street-se.html","uid":33.0}
{"_id":{"$oid":"5b3de88eef7b55041d874748"},"address":"1400 24th Ave SW","city":"Minot","zonal_area":"MIDWEST-US","province":"ND","country":"US","latitude":48.20858,"longitude":-101.3128,"name":"McDonald's","Rating":4,"postalCode":58701,"websites":"http://mcdonalds.com,http://www.mcdonalds.com/?cid=RF:YXT_FM:TP::Yext:Referral","uid":34.0}
{"_id":{"$oid":"5b3de88eef7b55041d874749"},"address":"703 S Magnolia St","city":"Woodville","zonal_area":"SOUTHWEST-US","province":"TX","country":"US","latitude":30.76846,"longitude":-94.41477,"name":"Whataburger","Rating":2,"postalCode":75979,"websites":"https://locations.whataburger.com/tx/woodville/703-s--magnolia.html/?utm_source=yextpagesandutm_medium=locallistingsandutm_campaign=yextpages,https://locations.whataburger.com/tx/woodville/703-s--magnolia.html/","uid":35.0}
{"_id":{"$oid":"5b3de88eef7b55041d87474a"},"address":"1535 S Broadway","city":"Minot","zonal_area":"MIDWEST-US","province":"ND","country":"US","latitude":48.219459,"longitude":-101.296022,"name":"Pizza Hut","Rating":5,"postalCode":58701,"websites":"http://www.pizzahut.com","uid":36.0}
{"_id":{"$oid":"5b3de88eef7b55041d87474b"},"address":"218 W Main St","city":"Ada","zonal_area":"SOUTHWEST-US","province":"OK","country":"US","latitude":34.77482,"longitude":-96.68126,"name":"Hamburger King","Rating":4,"postalCode":74820,"websites":"","uid":37.0}
{"_id":{"$oid":"5b3de88eef7b55041d87474c"},"address":"775 S Main St","city":"Smithfield","zonal_area":"WEST-US","province":"UT","country":"US","latitude":41.82069,"longitude":-111.83318,"name":"Domino's Pizza","Rating":1,"postalCode":84335,"websites":"https://www.dominos.com/en/?redirect=homepageandutm_source=locallistingsandutm_medium=loclistandutm_campaign=localmaps,https://www.dominos.com/en/?redirect=homepage,https://www.dominos.com/en/?redirect=homepageandutm_source=yextandutm_medium=loclistandutm_campaign=localmaps","uid":38.0}
{"_id":{"$oid":"5b3de88eef7b55041d87474d"},"address":"3208 S Elm Pl","city":"Broken Arrow","zonal_area":"SOUTHWEST-US","province":"OK","country":"US","latitude":36.01948,"longitude":-95.79756,"name":"SONIC Drive In","Rating":3,"postalCode":74012,"websites":"https://locations.sonicdrivein.com/ok/broken-arrow/3208-s-elm-place.html","uid":39.0}
{"_id":{"$oid":"5b3de88eef7b55041d87474e"},"address":"3056 Classen Blvd Unit A","city":"Norman","zonal_area":"SOUTHWEST-US","province":"OK","country":"US","latitude":35.18173,"longitude":-97.41709,"name":"Domino's Pizza","Rating":1,"postalCode":73071,"websites":"https://www.dominos.com/en/?redirect=homepage,https://www.dominos.com/en/?redirect=homepageandutm_source=locallistingsandutm_medium=loclistandutm_campaign=localmaps,https://www.dominos.com/en/?redirect=homepageandutm_source=yextandutm_medium=loclistandutm_campaign=localmaps","uid":40.0}
{"_id":{"$oid":"5b3de88eef7b55041d87474f"},"address":"982 Macon St","city":"Warner Robins","zonal_area":"SOUTHEAST-US","province":"GA","country":"US","latitude":32.59495,"longitude":-83.58338,"name":"Burger King","Rating":5,"postalCode":31098,"websites":"http://www.bk.com,https://locations.bk.com/ga/warner-robins/982-macon-st.html,https://www.bk.com","uid":41.0}
{"_id":{"$oid":"5b3de88eef7b55041d874750"},"address":"6060 San Mateo Blvd NE","city":"Albuquerque","zonal_area":"SOUTHWEST-US","province":"NM","country":"US","latitude":35.144456,"longitude":-106.585927,"name":"Burger King","Rating":4,"postalCode":87109,"websites":"http://www.bk.com,https://locations.bk.com/nm/albuquerque/6060-san-mateo-ne.html,https://www.bk.com","uid":42.0}
{"_id":{"$oid":"5b3de88eef7b55041d874751"},"address":"8401 Gateway Blvd W Ste M4","city":"El Paso","zonal_area":"SOUTHWEST-US","province":"TX","country":"US","latitude":31.77465,"longitude":-106.38071,"name":"McDonalds","Rating":5,"postalCode":79925,"websites":"http://mcdonalds.com,http://www.mcdonalds.com/?cid=RF:YXT_FM:TP::Yext:Referral","uid":43.0}
{"_id":{"$oid":"5b3de88eef7b55041d874752"},"address":"450 N Harrison Ave","city":"Shawnee","zonal_area":"SOUTHWEST-US","province":"OK","country":"US","latitude":35.33252,"longitude":-96.91222,"name":"SONIC Drive In","Rating":4,"postalCode":74801,"websites":"https://locations.sonicdrivein.com/ok/shawnee/450-n--harrison.html","uid":44.0}
{"_id":{"$oid":"5b3de88eef7b55041d874753"},"address":"9455 SW Barbur Blvd","city":"Portland","zonal_area":"WEST-US","province":"OR","country":"US","latitude":45.457027,"longitude":-122.713696,"name":"Taco Time","Rating":1,"postalCode":97219,"websites":"http://www.tacotime.com/stores/6254","uid":45.0}
{"_id":{"$oid":"5b3de88eef7b55041d874754"},"address":"351 River Hill Dr","city":"Ashland","zonal_area":"SOUTHEAST-US","province":"KY","country":"US","latitude":38.48554,"longitude":-82.658096,"name":"McDonald's","Rating":2,"postalCode":41101,"websites":"http://www.mcdonalds.com,http://www.mcdonalds.com/?cid=RF:YXT_FM:TP::Yext:Referral","uid":46.0}
{"_id":{"$oid":"5b3de88eef7b55041d874755"},"address":"18000 Bagley Rd","city":"Cleveland","zonal_area":"MIDWEST-US","province":"OH","country":"US","latitude":41.373042,"longitude":-81.826072,"name":"Burger King","Rating":4,"postalCode":44130,"websites":"http://www.bk.com","uid":47.0}
{"_id":{"$oid":"5b3de88eef7b55041d874756"},"address":"3700 N 1st Ave","city":"Evansville","zonal_area":"MIDWEST-US","province":"IN","country":"US","latitude":38.01322,"longitude":-87.57549,"name":"McDonald's","Rating":5,"postalCode":47710,"websites":"http://mcdonalds.com,http://www.mcdonalds.com/?cid=RF:YXT_FM:TP::Yext:Referral","uid":48.0}
{"_id":{"$oid":"5b3de88eef7b55041d874757"},"address":"895 N Highway 77 Ste 300","city":"Waxahachie","zonal_area":"SOUTHWEST-US","province":"TX","country":"US","latitude":32.41269,"longitude":-96.84213,"name":"Jimmy John's","Rating":4,"postalCode":75165,"websites":"http://www.jimmyjohns.com","uid":49.0}
{"_id":{"$oid":"5b3de88eef7b55041d874758"},"address":"819 SW 19th St","city":"Oklahoma City","zonal_area":"SOUTHWEST-US","province":"OK","country":"US","latitude":35.32026,"longitude":-97.50536,"name":"Domino's Pizza","Rating":5,"postalCode":73160,"websites":"https://www.dominos.com/en/?redirect=homepage,https://www.dominos.com/en/?redirect=homepageandutm_source=locallistingsandutm_medium=loclistandutm_campaign=localmaps","uid":50.0}
{"_id":{"$oid":"5b3de88eef7b55041d874759"},"address":"95-1249 Meheula Parkway,","city":"Mililani","zonal_area":"WEST-US","province":"HI","country":"US","latitude":21.45311,"longitude":-158.01738,"name":"Jersey Mike's Subs","Rating":5,"postalCode":96789,"websites":"https://www.jerseymikes.com/44004,http://www.jerseymikes.com","uid":51.0}
{"_id":{"$oid":"5b3de88eef7b55041d87475a"},"address":"1625 Veterans Pkwy","city":"Jeffersonville","zonal_area":"MIDWEST-US","province":"IN","country":"US","latitude":38.32967,"longitude":-85.74938,"name":"Popeyes Louisiana Kitchen","Rating":5,"postalCode":47130,"websites":"http://www.popeyes.com,http://popeyes.com","uid":52.0}
{"_id":{"$oid":"5b3de88eef7b55041d87475b"},"address":"2730 S Hurstbourne Pkwy Suite 100","city":"Louisville","zonal_area":"SOUTHEAST-US","province":"KY","country":"US","latitude":38.21234,"longitude":-85.59548,"name":"Qdoba Mexican Grill","Rating":1,"postalCode":40220,"websites":"http://www.qdoba.com,https://locations.qdoba.com/us/ky/louisville/2730-s-hurstbourne-pkwy.html","uid":53.0}
{"_id":{"$oid":"5b3de88eef7b55041d87475c"},"address":"5680 Commercial St SE Ste 100","city":"Salem","zonal_area":"WEST-US","province":"OR","country":"US","latitude":44.87205,"longitude":-123.02243,"name":"Domino's Pizza","Rating":4,"postalCode":97306,"websites":"https://www.dominos.com/en/?redirect=homepage,https://www.dominos.com/en/?redirect=homepageandutm_source=locallistingsandutm_medium=loclistandutm_campaign=localmaps","uid":54.0}
{"_id":{"$oid":"5b3de88eef7b55041d87475d"},"address":"2870 W Loop 1604 S","city":"San Antonio","zonal_area":"SOUTHWEST-US","province":"TX","country":"US","latitude":29.4033,"longitude":-98.70619,"name":"Whataburger","Rating":1,"postalCode":78245,"websites":"https://locations.whataburger.com/tx/san-antonio/2870-w-loop-1604-s.html/,https://locations.whataburger.com/tx/san-antonio/2870-w-loop-1604-s.html/?utm_source=yextpagesandutm_medium=locallistingsandutm_campaign=yextpages","uid":55.0}
{"_id":{"$oid":"5b3de88eef7b55041d87475e"},"address":"1321 Herr Ln Ste 150","city":"Louisville","zonal_area":"SOUTHEAST-US","province":"KY","country":"US","latitude":38.26897,"longitude":-85.61074,"name":"Qdoba Mexican Grill","Rating":5,"postalCode":40222,"websites":"https://locations.qdoba.com/us/ky/louisville/1321-herr-lane.html,http://www.qdoba.com","uid":56.0}
{"_id":{"$oid":"5b3de88eef7b55041d87475f"},"address":"100 Northside Dr","city":"Bennington","zonal_area":"NORTHEAST-US","province":"VT","country":"US","latitude":42.89413,"longitude":-73.20316,"name":"Taco Bell","Rating":5,"postalCode":5201,"websites":"http://www.tacobell.com,https://locations.tacobell.com/vt/bennington/100-northside-drive.html?utm_source=yextandutm_campaign=yextpowerlistingsandutm_medium=referralandutm_term=033371andutm_content=website","uid":57.0}
{"_id":{"$oid":"5b3de88eef7b55041d874760"},"address":"6611 S Mo Pac Expy Ste B","city":"Austin","zonal_area":"SOUTHWEST-US","province":"TX","country":"US","latitude":30.22023,"longitude":-97.83528,"name":"Whataburger","Rating":1,"postalCode":78749,"websites":"https://locations.whataburger.com/tx/austin/6611-s-mo-pac-expy.html/,https://locations.whataburger.com/tx/austin/6611-s-mo-pac-expy.html/?utm_source=yextpagesandutm_medium=locallistingsandutm_campaign=yextpages","uid":58.0}
{"_id":{"$oid":"5b3de88eef7b55041d874761"},"address":"9300 S Interstate 35 Bldg H","city":"Austin","zonal_area":"SOUTHWEST-US","province":"TX","country":"US","latitude":30.16525,"longitude":-97.78887,"name":"Whataburger","Rating":3,"postalCode":78748,"websites":"https://locations.whataburger.com/tx/austin/9300-s-interstate-35.html/,http://locations.whataburger.com","uid":59.0}
{"_id":{"$oid":"5b3de88eef7b55041d874762"},"address":"315 N Stephenson Ave","city":"Iron Mountain","zonal_area":"MIDWEST-US","province":"MI","country":"US","latitude":45.825755,"longitude":-88.063121,"name":"Hardee's","Rating":4,"postalCode":49801,"websites":"http://www.hardees.com","uid":60.0}
{"_id":{"$oid":"5b3de88eef7b55041d874763"},"address":"2439 Springs Rd NE","city":"Hickory","zonal_area":"SOUTHEAST-US","province":"NC","country":"US","latitude":35.75332,"longitude":-81.28572,"name":"McDonald's","Rating":1,"postalCode":28601,"websites":"http://www.mcdonalds.com,http://www.mcdonalds.com/?cid=RF:YXT_FM:TP::Yext:Referral","uid":61.0}
{"_id":{"$oid":"5b3de88eef7b55041d874764"},"address":"9651 Natural Bridge Rd","city":"Saint Louis","zonal_area":"MIDWEST-US","province":"MO","country":"US","latitude":38.72914,"longitude":-90.34394,"name":"Rally's","Rating":5,"postalCode":63134,"websites":"https://locations.rallys.com/mo/st.-louis/9651-natural-bridge-road,http://rallys.com","uid":62.0}
{"_id":{"$oid":"5b3de88eef7b55041d874765"},"address":"1665 Dove Park Rd Ste 300","city":"Mandeville","zonal_area":"SOUTHEAST-US","province":"LA","country":"US","latitude":30.41178,"longitude":-90.04186,"name":"Quiznos","Rating":1,"postalCode":70471,"websites":"http://restaurants.quiznos.com/la/mandeville/doveparkcommons-70471","uid":63.0}
{"_id":{"$oid":"5b3de88eef7b55041d874766"},"address":"225 Grant Ave","city":"Auburn","zonal_area":"NORTHEAST-US","province":"NY","country":"US","latitude":42.94987,"longitude":-76.54722,"name":"Burger King","Rating":4,"postalCode":13021,"websites":"http://www.bk.com,https://locations.bk.com/ny/auburn/225-grant-ave.html","uid":64.0}
{"_id":{"$oid":"5b3de88eef7b55041d874767"},"address":"5400 FM 1640 Rd Ste 500","city":"Richmond","zonal_area":"SOUTHWEST-US","province":"TX","country":"US","latitude":29.55941,"longitude":-95.76008,"name":"Whataburger","Rating":5,"postalCode":77469,"websites":"https://locations.whataburger.com/tx/richmond/5400-fm-1640-rd.html/,https://locations.whataburger.com/tx/richmond/5400-fm-1640-rd.html/?utm_source=yextpagesandutm_medium=locallistingsandutm_campaign=yextpages","uid":65.0}
{"_id":{"$oid":"5b3de88eef7b55041d874768"},"address":"2448 University Ave","city":"Green Bay","zonal_area":"MIDWEST-US","province":"WI","country":"US","latitude":44.51312,"longitude":-87.96051,"name":"Domino's Pizza","Rating":4,"postalCode":54302,"websites":"https://www.dominos.com/en/?redirect=homepage,https://www.dominos.com/en/?redirect=homepageandutm_source=locallistingsandutm_medium=loclistandutm_campaign=localmaps","uid":66.0}
{"_id":{"$oid":"5b3de88eef7b55041d874769"},"address":"111 Commons Dr","city":"Maumelle","zonal_area":"SOUTHEAST-US","province":"AR","country":"US","latitude":34.84808,"longitude":-92.40624,"name":"SONIC Drive In","Rating":2,"postalCode":72113,"websites":"https://locations.sonicdrivein.com/ar/maumelle/111-commons-drive.html","uid":67.0}
{"_id":{"$oid":"5b3de88eef7b55041d87476a"},"address":"344 S Service Rd E","city":"Sullivan","zonal_area":"MIDWEST-US","province":"MO","country":"US","latitude":38.22303,"longitude":-91.15696,"name":"Taco Bell","Rating":4,"postalCode":63080,"websites":"http://www.tacobell.com,https://locations.tacobell.com/mo/sullivan/344-s-service-rd-e.html?utm_source=yextandutm_campaign=yextpowerlistingsandutm_medium=referralandutm_term=029633andutm_content=website","uid":68.0}
{"_id":{"$oid":"5b3de88eef7b55041d87476b"},"address":"6490 Memphis Arlington Rd Ste 103","city":"Memphis","zonal_area":"SOUTHEAST-US","province":"TN","country":"US","latitude":35.22655,"longitude":-89.84786,"name":"Domino's Pizza","Rating":1,"postalCode":38135,"websites":"https://www.dominos.com/en/?redirect=homepage,https://www.dominos.com/en/?redirect=homepageandutm_source=locallistingsandutm_medium=loclistandutm_campaign=localmaps","uid":69.0}
{"_id":{"$oid":"5b3de88eef7b55041d87476c"},"address":"2124 S 1st St","city":"Yakima","zonal_area":"WEST-US","province":"WA","country":"US","latitude":46.57144,"longitude":-120.48825,"name":"Taco Bell","Rating":1,"postalCode":98903,"websites":"https://locations.tacobell.com/wa/yakima/2124-s-1st-street.html?utm_source=yextandutm_campaign=yextpowerlistingsandutm_medium=referralandutm_term=030512andutm_content=website,http://www.tacobell.com","uid":70.0}
{"_id":{"$oid":"5b3de88eef7b55041d87476d"},"address":"482 Branson Landing Blvd Ste 105","city":"Branson","zonal_area":"MIDWEST-US","province":"MO","country":"US","latitude":36.65075,"longitude":-93.22026,"name":"Jimmy John's","Rating":5,"postalCode":65616,"websites":"http://www.jimmyjohns.com","uid":71.0}
{"_id":{"$oid":"5b3de88eef7b55041d87476e"},"address":"406 S Thompson St","city":"Springdale","zonal_area":"SOUTHEAST-US","province":"AR","country":"US","latitude":36.182436,"longitude":-94.138658,"name":"Taco Bell","Rating":4,"postalCode":72764,"websites":"http://www.tacobell.com,https://locations.tacobell.com/ar/springdale/406-s--thompson.html?utm_source=yextandutm_campaign=yextpowerlistingsandutm_medium=referralandutm_term=003271andutm_content=website","uid":72.0}
{"_id":{"$oid":"5b3de88eef7b55041d87476f"},"address":"5094 Murfreesboro Rd Ste 1","city":"La Vergne","zonal_area":"SOUTHEAST-US","province":"TN","country":"US","latitude":36.02074,"longitude":-86.5812,"name":"Domino's Pizza","Rating":4,"postalCode":37086,"websites":"https://www.dominos.com/en/?redirect=homepageandutm_source=locallistingsandutm_medium=loclistandutm_campaign=localmaps,https://www.dominos.com/en/?redirect=homepage","uid":73.0}
{"_id":{"$oid":"5b3de88eef7b55041d874770"},"address":"801 S Vaughn Dr","city":"Brusly","zonal_area":"SOUTHEAST-US","province":"LA","country":"US","latitude":30.387691,"longitude":-91.25265,"name":"McDonald's","Rating":2,"postalCode":70719,"websites":"http://www.mcdonalds.com/?cid=RF:YXT_FM:TP::Yext:Referral,http://mcdonalds.com","uid":74.0}
{"_id":{"$oid":"5b3de88eef7b55041d874771"},"address":"5100 NC Highway 87 S Ste 102","city":"Fayetteville","zonal_area":"SOUTHEAST-US","province":"NC","country":"US","latitude":34.9297,"longitude":-78.85668,"name":"Domino's Pizza","Rating":2,"postalCode":28306,"websites":"https://www.dominos.com/en/?redirect=homepage,https://www.dominos.com/en/?redirect=homepageandutm_source=locallistingsandutm_medium=loclistandutm_campaign=localmaps,https://www.dominos.com/en/?redirect=homepageandutm_source=yextandutm_medium=loclistandutm_campaign=localmaps","uid":75.0}
{"_id":{"$oid":"5b3de88eef7b55041d874772"},"address":"Co-Op City","city":"Bronx","zonal_area":"NORTHEAST-US","province":"NY","country":"US","latitude":40.8691,"longitude":-73.8248,"name":"Burger King","Rating":3,"postalCode":10475,"websites":"http://www.bk.com","uid":76.0}
{"_id":{"$oid":"5b3de88eef7b55041d874773"},"address":"3898 Cleveland Hwy","city":"Dalton","zonal_area":"SOUTHEAST-US","province":"GA","country":"US","latitude":34.89383,"longitude":-84.94654,"name":"McDonalds","Rating":1,"postalCode":30721,"websites":"http://mcdonalds.com","uid":77.0}
{"_id":{"$oid":"5b3de88eef7b55041d874774"},"address":"1865 Blankenship Rd","city":"West Linn","zonal_area":"WEST-US","province":"OR","country":"US","latitude":45.349698,"longitude":-122.653281,"name":"Jack in the Box","Rating":2,"postalCode":97068,"websites":"http://www.jackinthebox.com","uid":78.0}
{"_id":{"$oid":"5b3de88eef7b55041d874775"},"address":"825 W 1100 S","city":"Brigham City","zonal_area":"WEST-US","province":"UT","country":"US","latitude":41.48602,"longitude":-112.02944,"name":"Sonic Drive-In","Rating":3,"postalCode":84302,"websites":"https://locations.sonicdrivein.com/ut/brigham-city/825-west-1100-south.html,http://sonicdrivein.com","uid":79.0}
{"_id":{"$oid":"5b3de88eef7b55041d874776"},"address":"955 S Main St","city":"Brigham City","zonal_area":"WEST-US","province":"UT","country":"US","latitude":41.49113,"longitude":-112.01555,"name":"Taco Bell","Rating":1,"postalCode":84302,"websites":"http://www.tacobell.com,https://locations.tacobell.com/ut/brigham-city/955-south-main-street.html?utm_source=yextandutm_campaign=yextpowerlistingsandutm_medium=referralandutm_term=020036andutm_content=website","uid":80.0}
{"_id":{"$oid":"5b3de88eef7b55041d874777"},"address":"875 W 1150 S","city":"Brigham City","zonal_area":"WEST-US","province":"UT","country":"US","latitude":41.48561,"longitude":-112.02934,"name":"Subway","Rating":5,"postalCode":84302,"websites":"http://www.subway.com,http://subway.com","uid":81.0}
{"_id":{"$oid":"5b3de88eef7b55041d874778"},"address":"524 Indian Boundary Rd","city":"Chesterton","zonal_area":"MIDWEST-US","province":"IN","country":"US","latitude":41.6165,"longitude":-87.0439,"name":"Jimmy John's","Rating":3,"postalCode":46304,"websites":"http://www.jimmyjohns.com","uid":82.0}
{"_id":{"$oid":"5b3de88eef7b55041d874779"},"address":"801 University St","city":"Martin","zonal_area":"SOUTHEAST-US","province":"TN","country":"US","latitude":36.3485,"longitude":-88.87344,"name":"McDonald's","Rating":4,"postalCode":38237,"websites":"http://www.mcdonalds.com/?cid=RF:YXT_FM:TP::Yext:Referral,http://mcdonalds.com","uid":83.0}
{"_id":{"$oid":"5b3de88eef7b55041d87477a"},"address":"2505 State Rd","city":"La Crosse","zonal_area":"MIDWEST-US","province":"WI","country":"US","latitude":43.79609,"longitude":-91.21769,"name":"Hardee's","Rating":2,"postalCode":54601,"websites":"http://www.hardees.com","uid":84.0}
{"_id":{"$oid":"5b3de88eef7b55041d87477b"},"address":"1610 Sycamore View Rd","city":"Memphis","zonal_area":"SOUTHEAST-US","province":"TN","country":"US","latitude":35.1694,"longitude":-89.86479,"name":"McDonald's","Rating":4,"postalCode":38134,"websites":"http://www.mcdonalds.com,http://www.mcdonalds.com/?cid=RF:YXT_FM:TP::Yext:Referral","uid":85.0}
{"_id":{"$oid":"5b3de88eef7b55041d87477c"},"address":"2437 George St","city":"La Crosse","zonal_area":"MIDWEST-US","province":"WI","country":"US","latitude":43.85742,"longitude":-91.23993,"name":"McDonald's","Rating":3,"postalCode":54603,"websites":"http://mcdonalds.com,http://www.mcdonalds.com/?cid=RF:YXT_FM:TP::Yext:Referral","uid":86.0}
{"_id":{"$oid":"5b3de88eef7b55041d87477d"},"address":"813 N Central Ave","city":"Marshfield","zonal_area":"MIDWEST-US","province":"WI","country":"US","latitude":44.674233,"longitude":-90.168369,"name":"Taco John's","Rating":4,"postalCode":54449,"websites":"https://www.tacojohns.com,http://locations.tacojohns.com/wi/marshfield/813-n-central-avenue.html","uid":87.0}
{"_id":{"$oid":"5b3de88eef7b55041d87477e"},"address":"1101 N Central Ave","city":"Marshfield","zonal_area":"MIDWEST-US","province":"WI","country":"US","latitude":44.67742,"longitude":-90.16521,"name":"McDonald's","Rating":3,"postalCode":54449,"websites":"http://mcdonalds.com,http://www.mcdonalds.com/?cid=RF:YXT_FM:TP::Yext:Referral","uid":88.0}
{"_id":{"$oid":"5b3de88eef7b55041d87477f"},"address":"4601 Northfield Rd","city":"Cleveland","zonal_area":"MIDWEST-US","province":"OH","country":"US","latitude":41.433314,"longitude":-81.523935,"name":"Mr Hero","Rating":4,"postalCode":44128,"websites":"http://www.mrhero.com","uid":89.0}
{"_id":{"$oid":"5b3de88eef7b55041d874780"},"address":"1601 W Lincoln Ave","city":"Yakima","zonal_area":"WEST-US","province":"WA","country":"US","latitude":46.6039,"longitude":-120.53093,"name":"McDonald's","Rating":1,"postalCode":98902,"websites":"http://www.mcdonalds.com/?cid=RF:YXT_FM:TP::Yext:Referral,http://www.mcdonalds.com","uid":90.0}
{"_id":{"$oid":"5b3de88eef7b55041d874781"},"address":"5706 W 7800 S","city":"West Jordan","zonal_area":"WEST-US","province":"UT","country":"US","latitude":40.60985,"longitude":-112.0266,"name":"McDonald's","Rating":2,"postalCode":84081,"websites":"http://www.mcdonalds.com,http://www.mcdonalds.com/?cid=RF:YXT_FM:TP::Yext:Referral","uid":91.0}
{"_id":{"$oid":"5b3de88eef7b55041d874782"},"address":"1014 Highway 82 E","city":"Indianola","zonal_area":"SOUTHEAST-US","province":"MS","country":"US","latitude":33.45785,"longitude":-90.63563,"name":"Taco Bell","Rating":1,"postalCode":38751,"websites":"http://www.tacobell.com,https://locations.tacobell.com/ms/indianola/1014-highway-82.html?utm_source=yextandutm_campaign=yextpowerlistingsandutm_medium=referralandutm_term=C412001andutm_content=website","uid":92.0}
{"_id":{"$oid":"5b3de88eef7b55041d874783"},"address":"640 Huebner Rd","city":"Fort Riley","zonal_area":"MIDWEST-US","province":"KS","country":"US","latitude":39.0644,"longitude":-96.79881,"name":"Domino's Pizza","Rating":2,"postalCode":66442,"websites":"https://www.dominos.com/en/?redirect=homepage,https://www.dominos.com/en/?redirect=homepageandutm_source=locallistingsandutm_medium=loclistandutm_campaign=localmaps,https://www.dominos.com/en/?redirect=homepageandutm_source=yextandutm_medium=loclistandutm_campaign=localmaps","uid":93.0}
{"_id":{"$oid":"5b3de88eef7b55041d874784"},"address":"1418 W Sunset Blvd","city":"Saint George","zonal_area":"WEST-US","province":"UT","country":"US","latitude":37.122977,"longitude":-113.613499,"name":"Taco Bell","Rating":2,"postalCode":84770,"websites":"http://www.tacobell.com,https://locations.tacobell.com/ut/saint-george/1418-west-sunset-blvd.html?utm_source=yextandutm_campaign=yextpowerlistingsandutm_medium=referralandutm_term=025391andutm_content=website","uid":94.0}
{"_id":{"$oid":"5b3de88eef7b55041d874785"},"address":"610 E Saint George Blvd","city":"Saint George","zonal_area":"WEST-US","province":"UT","country":"US","latitude":37.109869,"longitude":-113.570286,"name":"Taco Bell","Rating":5,"postalCode":84770,"websites":"http://www.tacobell.com,https://locations.tacobell.com/ut/saint-george/610-east-st-george-blvd.html?utm_source=yextandutm_campaign=yextpowerlistingsandutm_medium=referralandutm_term=025385andutm_content=website","uid":95.0}
{"_id":{"$oid":"5b3de88eef7b55041d874786"},"address":"4651 W 6th St","city":"Lawrence","zonal_area":"MIDWEST-US","province":"KS","country":"US","latitude":38.971514,"longitude":-95.301449,"name":"Pizza Hut","Rating":2,"postalCode":66049,"websites":"http://www.pizzahut.com","uid":96.0}
{"_id":{"$oid":"5b3de88eef7b55041d874787"},"address":"5540 Old Cheney Rd","city":"Lincoln","zonal_area":"MIDWEST-US","province":"NE","country":"US","latitude":40.75546,"longitude":-96.64543,"name":"Amigos/Kings Classic","Rating":4,"postalCode":68516,"websites":"http://www.facebook.com/amigoskings,http://www.amigoskings.com","uid":97.0}
{"_id":{"$oid":"5b3de88eef7b55041d874788"},"address":"7501 W 135th St","city":"Overland Park","zonal_area":"MIDWEST-US","province":"KS","country":"US","latitude":38.88353,"longitude":-94.672,"name":"Raising Cane's Chicken Fingers","Rating":2,"postalCode":66223,"websites":"http://raisingcanes.com","uid":98.0}
{"_id":{"$oid":"5b3de88eef7b55041d874789"},"address":"4204 Milan Rd","city":"Sandusky","zonal_area":"MIDWEST-US","province":"OH","country":"US","latitude":41.41841,"longitude":-82.67352,"name":"McDonalds","Rating":2,"postalCode":44870,"websites":"http://mcdonalds.com,http://www.mcdonalds.com/?cid=RF:YXT_FM:TP::Yext:Referral","uid":99.0}
{"_id":{"$oid":"5b3de88eef7b55041d87478a"},"address":"6300 Gulf Fwy","city":"La Marque","zonal_area":"SOUTHWEST-US","province":"TX","country":"US","latitude":29.3676,"longitude":-94.97416,"name":"Whataburger","Rating":2,"postalCode":77568,"websites":"https://locations.whataburger.com/tx/la-marque/6300-gulf-freeway.html/?utm_source=yextpagesandutm_medium=locallistingsandutm_campaign=yextpages,https://locations.whataburger.com/tx/la-marque/6300-gulf-freeway.html/","uid":100.0}
{"_id":{"$oid":"5b3de88eef7b55041d87478b"},"address":"1302 Highway 35 N","city":"Rockport","zonal_area":"SOUTHWEST-US","province":"TX","country":"US","latitude":28.036688,"longitude":-97.04238,"name":"McDonald's","Rating":5,"postalCode":78382,"websites":"http://mcdonalds.com,http://www.mcdonalds.com/?cid=RF:YXT_FM:TP::Yext:Referral","uid":101.0}
{"_id":{"$oid":"5b3de88eef7b55041d87478c"},"address":"3515 Springdale Rd","city":"Cincinnati","zonal_area":"MIDWEST-US","province":"OH","country":"US","latitude":39.25009,"longitude":-84.59411,"name":"Domino's Pizza","Rating":4,"postalCode":45251,"websites":"http://dominospizza.com,http://www.dominos.com","uid":102.0}
{"_id":{"$oid":"5b3de88eef7b55041d87478d"},"address":"7720 Laurel Ave","city":"Cincinnati","zonal_area":"MIDWEST-US","province":"OH","country":"US","latitude":39.18985,"longitude":-84.36207,"name":"Domino's Pizza","Rating":3,"postalCode":45243,"websites":"https://www.dominos.com/en/?redirect=homepageandutm_source=locallistingsandutm_medium=loclistandutm_campaign=localmaps,https://www.dominos.com/en/?redirect=homepage,https://www.dominos.com/en/?redirect=homepageandutm_source=yextandutm_medium=loclistandutm_campaign=localmaps","uid":103.0}
{"_id":{"$oid":"5b3de88eef7b55041d87478e"},"address":"123 Creekside Xing","city":"New Braunfels","zonal_area":"SOUTHWEST-US","province":"TX","country":"US","latitude":29.7279,"longitude":-98.07612,"name":"Whataburger","Rating":1,"postalCode":78130,"websites":"https://locations.whataburger.com/tx/new-braunfels/123-creekside-crossing.html/,https://locations.whataburger.com/tx/new-braunfels/123-creekside-crossing.html/?utm_source=yextpagesandutm_medium=locallistingsandutm_campaign=yextpages","uid":104.0}
{"_id":{"$oid":"5b3de88eef7b55041d87478f"},"address":"793 Roosevelt Trl","city":"Windham","zonal_area":"NORTHEAST-US","province":"ME","country":"US","latitude":43.83887,"longitude":-70.44217,"name":"Burger King","Rating":5,"postalCode":4062,"websites":"http://www.bk.com,https://locations.bk.com/me/windham/793-roosevelt-trl.html,https://locations.bk.com/me/north-windham/793-roosevelt-trl.html","uid":105.0}
{"_id":{"$oid":"5b3de88eef7b55041d874790"},"address":"14700 E Indiana Ave","city":"Spokane","zonal_area":"WEST-US","province":"WA","country":"US","latitude":47.673976,"longitude":-117.206394,"name":"Taco Time","Rating":5,"postalCode":99216,"websites":"http://www.tacotime.com/stores/6406","uid":106.0}
{"_id":{"$oid":"5b3de88eef7b55041d874791"},"address":"201 Commerce Dr","city":"Jefferson City","zonal_area":"MIDWEST-US","province":"MO","country":"US","latitude":38.59259,"longitude":-92.2254,"name":"SONIC Drive In","Rating":3,"postalCode":65109,"websites":"https://locations.sonicdrivein.com/mo/jefferson-city/201-commerce-drive.html,http://sonicdrivein.com","uid":107.0}
{"_id":{"$oid":"5b3de88eef7b55041d874792"},"address":"3124 S Ten Mile Dr","city":"Jefferson City","zonal_area":"MIDWEST-US","province":"MO","country":"US","latitude":38.58068,"longitude":-92.2352,"name":"McDonald's","Rating":1,"postalCode":65109,"websites":"http://mcdonalds.com,http://www.mcdonalds.com/?cid=RF:YXT_FM:TP::Yext:Referral","uid":108.0}
{"_id":{"$oid":"5b3de88eef7b55041d874793"},"address":"1417 Jackson Ave W","city":"Oxford","zonal_area":"SOUTHEAST-US","province":"MS","country":"US","latitude":34.36729,"longitude":-89.54978,"name":"Coop DeVille","Rating":4,"postalCode":38655,"websites":"http://www.coopdevillerecords.com","uid":109.0}
{"_id":{"$oid":"5b3de88eef7b55041d874794"},"address":"2984 Upland Pkwy","city":"Sidney","zonal_area":"MIDWEST-US","province":"NE","country":"US","latitude":41.138,"longitude":-102.98557,"name":"McDonalds","Rating":4,"postalCode":69162,"websites":"http://mcdonalds.com,http://www.mcdonalds.com/?cid=RF:YXT_FM:TP::Yext:Referral","uid":110.0}
{"_id":{"$oid":"5b3de88eef7b55041d874795"},"address":"1002 J St","city":"Auburn","zonal_area":"MIDWEST-US","province":"NE","country":"US","latitude":40.39457,"longitude":-95.83913,"name":"Amigos/Kings Classic","Rating":1,"postalCode":68305,"websites":"http://www.amigoskings.com,http://www.facebook.com/amigoskings","uid":111.0}
{"_id":{"$oid":"5b3de88eef7b55041d874796"},"address":"191 7th St","city":"Garden City","zonal_area":"NORTHEAST-US","province":"NY","country":"US","latitude":40.725253,"longitude":-73.634393,"name":"B. Good","Rating":1,"postalCode":11530,"websites":"https://bgood.com/locations/191-7th-street-garden-city-ny","uid":112.0}
{"_id":{"$oid":"5b3de88eef7b55041d874797"},"address":"544 Conestoga Pkwy","city":"Shepherdsville","zonal_area":"SOUTHEAST-US","province":"KY","country":"US","latitude":37.9978,"longitude":-85.70737,"name":"Domino's Pizza","Rating":5,"postalCode":40165,"websites":"https://www.dominos.com/en/?redirect=homepage,https://www.dominos.com/en/?redirect=homepageandutm_source=locallistingsandutm_medium=loclistandutm_campaign=localmaps,https://www.dominos.com/en/?redirect=homepageandutm_source=yextandutm_medium=loclistandutm_campaign=localmaps","uid":113.0}
{"_id":{"$oid":"5b3de88eef7b55041d874798"},"address":"101 Smith Rd","city":"Glasgow","zonal_area":"SOUTHEAST-US","province":"KY","country":"US","latitude":37.0082,"longitude":-85.92208,"name":"McDonald's","Rating":3,"postalCode":42141,"websites":"http://mcdonalds.com,http://www.mcdonalds.com/?cid=RF:YXT_FM:TP::Yext:Referral","uid":114.0}
{"_id":{"$oid":"5b3de88eef7b55041d874799"},"address":"131 S Highway 27","city":"Somerset","zonal_area":"SOUTHEAST-US","province":"KY","country":"US","latitude":37.09224,"longitude":-84.61883,"name":"McDonald's","Rating":2,"postalCode":42501,"websites":"http://www.mcdonalds.com/?cid=RF:YXT_FM:TP::Yext:Referral,http://mcdonalds.com","uid":115.0}
{"_id":{"$oid":"5b3de88eef7b55041d87479a"},"address":"5212 Jackson St","city":"Alexandria","zonal_area":"SOUTHEAST-US","province":"LA","country":"US","latitude":31.27267,"longitude":-92.48395,"name":"Sonic Drive-In","Rating":3,"postalCode":71303,"websites":"https://locations.sonicdrivein.com/la/alexandria/5212-jackson-street.html","uid":116.0}
{"_id":{"$oid":"5b3de88eef7b55041d87479b"},"address":"1511 C Goff Blvd S W Plaza Rio Shpg Ctr","city":"Albuquerque","zonal_area":"SOUTHWEST-US","province":"NM","country":"US","latitude":35.085335,"longitude":-106.60555,"name":"Domino's Pizza","Rating":3,"postalCode":87105,"websites":"https://www.dominos.com/en/?redirect=homepageandutm_source=locallistingsandutm_medium=loclistandutm_campaign=localmaps,https://www.dominos.com/en/?redirect=homepage,https://www.dominos.com/en/?redirect=homepageandutm_source=yextandutm_medium=loclistandutm_campaign=localmaps","uid":117.0}
{"_id":{"$oid":"5b3de88eef7b55041d87479c"},"address":"4800 Frederica St","city":"Owensboro","zonal_area":"SOUTHEAST-US","province":"KY","country":"US","latitude":37.723743,"longitude":-87.123894,"name":"McDonald's","Rating":1,"postalCode":42301,"websites":"http://mcdonalds.com,http://www.mcdonalds.com/?cid=RF:YXT_FM:TP::Yext:Referral","uid":118.0}
{"_id":{"$oid":"5b3de88eef7b55041d87479d"},"address":"300 W Esplanade Ave","city":"Kenner","zonal_area":"SOUTHEAST-US","province":"LA","country":"US","latitude":30.02306,"longitude":-90.26933,"name":"Burger King","Rating":3,"postalCode":70065,"websites":"http://www.bk.com,https://locations.bk.com/la/kenner/300-w-esplanade-ave.html,https://www.bk.com","uid":119.0}
{"_id":{"$oid":"5b3de88eef7b55041d87479e"},"address":"5963 W Main St","city":"Houma","zonal_area":"SOUTHEAST-US","province":"LA","country":"US","latitude":29.63346,"longitude":-90.75858,"name":"Sonic Drive-In","Rating":1,"postalCode":70360,"websites":"https://locations.sonicdrivein.com/la/houma/5963-w-main-street.html","uid":120.0}
{"_id":{"$oid":"5b3de88eef7b55041d87479f"},"address":"7849 Tramway Blvd NE Ste D","city":"Albuquerque","zonal_area":"SOUTHWEST-US","province":"NM","country":"US","latitude":35.17351,"longitude":-106.49703,"name":"Domino's Pizza","Rating":5,"postalCode":87122,"websites":"https://www.dominos.com/en/?redirect=homepage,https://www.dominos.com/en/?redirect=homepageandutm_source=locallistingsandutm_medium=loclistandutm_campaign=localmaps,https://www.dominos.com/en/?redirect=homepageandutm_source=yextandutm_medium=loclistandutm_campaign=localmaps","uid":121.0}
{"_id":{"$oid":"5b3de88eef7b55041d8747a0"},"address":"400 Clifty Dr","city":"Madison","zonal_area":"MIDWEST-US","province":"IN","country":"US","latitude":38.77544,"longitude":-85.39367,"name":"Rally's","Rating":3,"postalCode":47250,"websites":"https://locations.rallys.com/in/madison/400-clifty-drive,http://rallys.com","uid":122.0}
{"_id":{"$oid":"5b3de88eef7b55041d8747a1"},"address":"1228 Saint Charles St","city":"Houma","zonal_area":"SOUTHEAST-US","province":"LA","country":"US","latitude":29.58875,"longitude":-90.74346,"name":"Taco Bell","Rating":1,"postalCode":70360,"websites":"http://www.tacobell.com,https://locations.tacobell.com/la/houma/1228-saint-charles-street.html?utm_source=yextandutm_campaign=yextpowerlistingsandutm_medium=referralandutm_term=024689andutm_content=website","uid":123.0}
{"_id":{"$oid":"5b3de88eef7b55041d8747a2"},"address":"725 Sterlington Hwy","city":"Farmerville","zonal_area":"SOUTHEAST-US","province":"LA","country":"US","latitude":32.7715,"longitude":-92.39699,"name":"Taco Bell","Rating":3,"postalCode":71241,"websites":"https://locations.tacobell.com/la/farmerville/725-sterlington-highway.html?utm_source=yextandutm_campaign=yextpowerlistingsandutm_medium=referralandutm_term=G135477andutm_content=website,http://www.tacobell.com","uid":124.0}
{"_id":{"$oid":"5b3de88eef7b55041d8747a3"},"address":"1088 Westbank Expy","city":"Westwego","zonal_area":"SOUTHEAST-US","province":"LA","country":"US","latitude":29.89708,"longitude":-90.14081,"name":"Pizza Hut","Rating":5,"postalCode":70094,"websites":"http://www.pizzahut.com","uid":125.0}
{"_id":{"$oid":"5b3de88eef7b55041d8747a4"},"address":"1000 Government St","city":"Baton Rouge","zonal_area":"SOUTHEAST-US","province":"LA","country":"US","latitude":30.44345,"longitude":-91.17915,"name":"Sonic Drive-In","Rating":2,"postalCode":70802,"websites":"https://locations.sonicdrivein.com/la/baton-rouge/1000-government-street.html","uid":126.0}
{"_id":{"$oid":"5b3de88eef7b55041d8747a5"},"address":"314 E Carpenter St","city":"Cleveland","zonal_area":"SOUTHEAST-US","province":"MS","country":"US","latitude":33.75489,"longitude":-90.71678,"name":"Back Yard Burgers","Rating":5,"postalCode":38732,"websites":"http://www.backyardburgers.com","uid":127.0}
{"_id":{"$oid":"5b3de88eef7b55041d8747a6"},"address":"120 S Davis Ave","city":"Cleveland","zonal_area":"SOUTHEAST-US","province":"MS","country":"US","latitude":33.74364,"longitude":-90.71593,"name":"McDonald's","Rating":3,"postalCode":38732,"websites":"http://mcdonalds.com,http://www.mcdonalds.com/?cid=RF:YXT_FM:TP::Yext:Referral","uid":128.0}
{"_id":{"$oid":"5b3de88eef7b55041d8747a7"},"address":"1231 Holcomb Blvd","city":"Camp Lejeune","zonal_area":"SOUTHEAST-US","province":"NC","country":"US","latitude":34.72418,"longitude":-77.34444,"name":"Wendy's","Rating":1,"postalCode":28547,"websites":"http://www.wendys.com","uid":129.0}
{"_id":{"$oid":"5b3de88eef7b55041d8747a8"},"address":"112 E 2nd St","city":"Duluth","zonal_area":"MIDWEST-US","province":"MN","country":"US","latitude":46.78937,"longitude":-92.09841,"name":"Domino's Pizza","Rating":4,"postalCode":55805,"websites":"https://www.dominos.com/en/?redirect=homepage,https://www.dominos.com/en/?redirect=homepageandutm_source=locallistingsandutm_medium=loclistandutm_campaign=localmaps","uid":130.0}
{"_id":{"$oid":"5b3de88eef7b55041d8747a9"},"address":"976 William H Wilson Ave Ste 100","city":"Fort Stewart","zonal_area":"SOUTHEAST-US","province":"GA","country":"US","latitude":31.8613,"longitude":-81.61078,"name":"Burger King","Rating":2,"postalCode":31314,"websites":"https://locations.bk.com/ga/fort-stewart/976-william-h-wilson-ave.html,http://www.bk.com","uid":131.0}
{"_id":{"$oid":"5b3de88eef7b55041d8747aa"},"address":"2910 Lurleen B Wallace Blvd","city":"Northport","zonal_area":"SOUTHEAST-US","province":"AL","country":"US","latitude":33.236442,"longitude":-87.576869,"name":"Sonic Drive-In","Rating":5,"postalCode":35476,"websites":"https://locations.sonicdrivein.com/al/northport/2910-lurleen-b--wallace-blvd.html","uid":132.0}
{"_id":{"$oid":"5b3de88eef7b55041d8747ab"},"address":"2441 James St","city":"Coralville","zonal_area":"MIDWEST-US","province":"IA","country":"US","latitude":41.68432,"longitude":-91.60353,"name":"Domino's Pizza","Rating":3,"postalCode":52241,"websites":"https://www.dominos.com/en/?redirect=homepage,https://www.dominos.com/en/?redirect=homepageandutm_source=locallistingsandutm_medium=loclistandutm_campaign=localmaps","uid":133.0}
{"_id":{"$oid":"5b3de88eef7b55041d8747ac"},"address":"602 Highway 31 SW","city":"Hartselle","zonal_area":"SOUTHEAST-US","province":"AL","country":"US","latitude":34.439438,"longitude":-86.940455,"name":"Taco Bell","Rating":5,"postalCode":35640,"websites":"http://www.tacobell.com,https://locations.tacobell.com/al/hartselle/602-highway-31-south.html?utm_source=yextandutm_campaign=yextpowerlistingsandutm_medium=referralandutm_term=029149andutm_content=website","uid":134.0}
{"_id":{"$oid":"5b3de88eef7b55041d8747ad"},"address":"107 Jordan Plz","city":"Elizabeth City","zonal_area":"SOUTHEAST-US","province":"NC","country":"US","latitude":36.29457,"longitude":-76.23925,"name":"Domino's Pizza","Rating":3,"postalCode":27909,"websites":"https://www.dominos.com/en/?redirect=homepage,https://www.dominos.com/en/?redirect=homepageandutm_source=locallistingsandutm_medium=loclistandutm_campaign=localmaps","uid":135.0}
{"_id":{"$oid":"5b3de88eef7b55041d8747ae"},"address":"905 W Corbett Ave","city":"Swansboro","zonal_area":"SOUTHEAST-US","province":"NC","country":"US","latitude":34.69765,"longitude":-77.14086,"name":"McDonalds","Rating":2,"postalCode":28584,"websites":"http://www.mcdonalds.com,http://www.mcdonalds.com/?cid=RF:YXT_FM:TP::Yext:Referral","uid":136.0}
{"_id":{"$oid":"5b3de88eef7b55041d8747af"},"address":"2001 Sutton Ln","city":"Sutton","zonal_area":"SOUTHEAST-US","province":"WV","country":"US","latitude":38.70084,"longitude":-80.664158,"name":"Arby's","Rating":2,"postalCode":26601,"websites":"http://www.arbys.com,http://arbys.com/our-menu","uid":137.0}
{"_id":{"$oid":"5b3de88eef7b55041d8747b0"},"address":"161 Church St","city":"Burlington","zonal_area":"NORTHEAST-US","province":"VT","country":"US","latitude":44.47568,"longitude":-73.21264,"name":"Pacific Rim","Rating":3,"postalCode":5401,"websites":"","uid":138.0}
{"_id":{"$oid":"5b3de88eef7b55041d8747b1"},"address":"3716 7th St","city":"Bay City","zonal_area":"SOUTHWEST-US","province":"TX","country":"US","latitude":28.9826,"longitude":-95.94636,"name":"Taco Bell","Rating":2,"postalCode":77414,"websites":"https://locations.tacobell.com/tx/bay-city/3716-seventh-street.html?utm_source=yextandutm_campaign=yextpowerlistingsandutm_medium=referralandutm_term=H758001andutm_content=website,http://www.tacobell.com","uid":139.0}
{"_id":{"$oid":"5b3de88eef7b55041d8747b2"},"address":"443 Killian Rd","city":"Columbia","zonal_area":"SOUTHEAST-US","province":"SC","country":"US","latitude":34.13885,"longitude":-80.95378,"name":"Panda Express","Rating":2,"postalCode":29203,"websites":"http://www.pandaexpress.com","uid":140.0}
{"_id":{"$oid":"5b3de88eef7b55041d8747b3"},"address":"122 Hayward Ave","city":"Ames","zonal_area":"MIDWEST-US","province":"IA","country":"US","latitude":42.02193,"longitude":-93.65164,"name":"Domino's Pizza","Rating":5,"postalCode":50014,"websites":"https://www.dominos.com/en/?redirect=homepage,https://www.dominos.com/en/?redirect=homepageandutm_source=yextandutm_medium=loclistandutm_campaign=localmaps","uid":141.0}
{"_id":{"$oid":"5b3de88eef7b55041d8747b4"},"address":"1306 Scotland Crossing Dr","city":"Laurinburg","zonal_area":"SOUTHEAST-US","province":"NC","country":"US","latitude":34.760626,"longitude":-79.487148,"name":"Taco Bell","Rating":1,"postalCode":28352,"websites":"http://www.tacobell.com,https://locations.tacobell.com/nc/laurinburg/1306-scotland-crossing.html?utm_source=yextandutm_campaign=yextpowerlistingsandutm_medium=referralandutm_term=004184andutm_content=website","uid":142.0}
{"_id":{"$oid":"5b3de88eef7b55041d8747b5"},"address":"1700 Norman Dr Spc 1056","city":"Valdosta","zonal_area":"SOUTHEAST-US","province":"GA","country":"US","latitude":30.84377,"longitude":-83.32041,"name":"Chick-fil-A","Rating":4,"postalCode":31601,"websites":"http://www.chick-fil-a.com/valdostamall,http://www.chick-fil-a.com","uid":143.0}
{"_id":{"$oid":"5b3de88eef7b55041d8747b6"},"address":"502 W Columbia Ave","city":"Batesburg","zonal_area":"SOUTHEAST-US","province":"SC","country":"US","latitude":33.903931,"longitude":-81.545787,"name":"Hardee's","Rating":2,"postalCode":29006,"websites":"http://www.hardees.com","uid":144.0}
{"_id":{"$oid":"5b3de88eef7b55041d8747b7"},"address":"4965 Centre Pointe Dr","city":"North Charleston","zonal_area":"SOUTHEAST-US","province":"SC","country":"US","latitude":32.87129,"longitude":-80.02056,"name":"Domino's Pizza","Rating":5,"postalCode":29418,"websites":"https://www.dominos.com/en/?redirect=homepage,https://www.dominos.com/en/?redirect=homepageandutm_source=locallistingsandutm_medium=loclistandutm_campaign=localmaps,https://www.dominos.com/en/?redirect=homepageandutm_source=yextandutm_medium=loclistandutm_campaign=localmaps","uid":145.0}
{"_id":{"$oid":"5b3de88eef7b55041d8747b8"},"address":"2441 Northgate St","city":"Ottumwa","zonal_area":"MIDWEST-US","province":"IA","country":"US","latitude":41.04905,"longitude":-92.41165,"name":"McDonald's","Rating":5,"postalCode":52501,"websites":"http://mcdonalds.com,http://www.mcdonalds.com/?cid=RF:YXT_FM:TP::Yext:Referral","uid":146.0}
{"_id":{"$oid":"5b3de88eef7b55041d8747b9"},"address":"903 E Milam St","city":"Mexia","zonal_area":"SOUTHWEST-US","province":"TX","country":"US","latitude":31.68468,"longitude":-96.47389,"name":"McDonald's","Rating":5,"postalCode":76667,"websites":"http://www.mcdonalds.com/?cid=RF:YXT_FM:TP::Yext:Referral,http://mcdonalds.com","uid":147.0}
{"_id":{"$oid":"5b3de88eef7b55041d8747ba"},"address":"5131 Government St","city":"Baton Rouge","zonal_area":"SOUTHEAST-US","province":"LA","country":"US","latitude":30.44529,"longitude":-91.13715,"name":"Captain D's","Rating":3,"postalCode":70806,"websites":"https://locations.captainds.com/la/baton-rouge/5131-government-st.html","uid":148.0}
{"_id":{"$oid":"5b3de88eef7b55041d8747bb"},"address":"4021 Interstate Highway 69 Access Rd","city":"Corpus Christi","zonal_area":"SOUTHWEST-US","province":"TX","country":"US","latitude":27.85699,"longitude":-97.63067,"name":"Whataburger","Rating":3,"postalCode":78410,"websites":"https://locations.whataburger.com/tx/corpus-christi/4021-ih-69-access-rd.html/?utm_source=yextpagesandutm_medium=locallistingsandutm_campaign=yextpages,https://locations.whataburger.com/tx/corpus-christi/4021-ih-69-access-rd.html/","uid":149.0}
{"_id":{"$oid":"5b3de88eef7b55041d8747bc"},"address":"839 E Mulberry St","city":"Angleton","zonal_area":"SOUTHWEST-US","province":"TX","country":"US","latitude":29.165887,"longitude":-95.422475,"name":"Jack in the Box","Rating":3,"postalCode":77515,"websites":"http://www.jackinthebox.com","uid":150.0}
{"_id":{"$oid":"5b3de88eef7b55041d8747bd"},"address":"3900 University Pkwy","city":"Natchitoches","zonal_area":"SOUTHEAST-US","province":"LA","country":"US","latitude":31.75324,"longitude":-93.10647,"name":"Sonic Drive-In","Rating":4,"postalCode":71457,"websites":"https://locations.sonicdrivein.com/la/natchitoches/3900-university-parkway.html","uid":151.0}
{"_id":{"$oid":"5b3de88eef7b55041d8747be"},"address":"1855 Main Ave N","city":"Tillamook","zonal_area":"WEST-US","province":"OR","country":"US","latitude":45.486681,"longitude":-123.845556,"name":"McDonald's","Rating":2,"postalCode":97141,"websites":"http://www.mcdonalds.com/?cid=RF:YXT_FM:TP::Yext:Referral,http://mcdonalds.com","uid":152.0}
{"_id":{"$oid":"5b3de88eef7b55041d8747bf"},"address":"400 Downs Blvd Ste 100","city":"Franklin","zonal_area":"SOUTHEAST-US","province":"TN","country":"US","latitude":35.90875,"longitude":-86.88409,"name":"Domino's Pizza","Rating":5,"postalCode":37064,"websites":"https://www.dominos.com/en/?redirect=homepageandutm_source=locallistingsandutm_medium=loclistandutm_campaign=localmaps,https://www.dominos.com/en/?redirect=homepage,https://www.dominos.com/en/?redirect=homepageandutm_source=yextandutm_medium=loclistandutm_campaign=localmaps","uid":153.0}
{"_id":{"$oid":"5b3de88eef7b55041d8747c0"},"address":"808 E Liberty St","city":"Mexico","zonal_area":"MIDWEST-US","province":"MO","country":"US","latitude":39.16989,"longitude":-91.87478,"name":"SONIC Drive In","Rating":3,"postalCode":65265,"websites":"https://locations.sonicdrivein.com/mo/mexico/808-e--liberty.html","uid":154.0}
{"_id":{"$oid":"5b3de88eef7b55041d8747c1"},"address":"701 E Main St","city":"Park Hills","zonal_area":"MIDWEST-US","province":"MO","country":"US","latitude":37.84401,"longitude":-90.50351,"name":"SONIC Drive In","Rating":4,"postalCode":63601,"websites":"https://locations.sonicdrivein.com/mo/park-hills/701-e--main-street.html","uid":155.0}
{"_id":{"$oid":"5b3de88eef7b55041d8747c2"},"address":"3039 W Peoria Ave","city":"Phoenix","zonal_area":"SOUTHWEST-US","province":"AZ","country":"US","latitude":33.581838,"longitude":-112.124385,"name":"Samurai Sam's","Rating":2,"postalCode":85029,"websites":"http://www.samuraisams.net/stores/5017","uid":156.0}
{"_id":{"$oid":"5b3de88eef7b55041d8747c3"},"address":"324 W Bypass","city":"Andalusia","zonal_area":"SOUTHEAST-US","province":"AL","country":"US","latitude":31.30789,"longitude":-86.4999,"name":"Arby's","Rating":4,"postalCode":36420,"websites":"http://www.arbys.com,https://locations.arbys.com/us/al/andalusia/324-west-bypass.html","uid":157.0}
{"_id":{"$oid":"5b3de88eef7b55041d8747c4"},"address":"1411 Q St","city":"Lincoln","zonal_area":"MIDWEST-US","province":"NE","country":"US","latitude":40.814503,"longitude":-96.700905,"name":"Amigos/Kings Classic","Rating":1,"postalCode":68508,"websites":"http://www.amigoskings.com","uid":158.0}
{"_id":{"$oid":"5b3de88eef7b55041d8747c5"},"address":"525 W Crawford St","city":"Clay Center","zonal_area":"MIDWEST-US","province":"KS","country":"US","latitude":39.37906,"longitude":-97.14248,"name":"SONIC Drive In","Rating":4,"postalCode":67432,"websites":"https://locations.sonicdrivein.com/ks/clay-center/525-w--crawford.html","uid":159.0}
{"_id":{"$oid":"5b3de88eef7b55041d8747c6"},"address":"5802 S Broadway Ave","city":"Tyler","zonal_area":"SOUTHWEST-US","province":"TX","country":"US","latitude":32.28572,"longitude":-95.30372,"name":"McDonald's","Rating":1,"postalCode":75703,"websites":"http://mcdonalds.com,http://www.mcdonalds.com/?cid=RF:YXT_FM:TP::Yext:Referral","uid":160.0}
{"_id":{"$oid":"5b3de88eef7b55041d8747c7"},"address":"3112 N Navarro St","city":"Victoria","zonal_area":"SOUTHWEST-US","province":"TX","country":"US","latitude":28.82378,"longitude":-97.000727,"name":"McDonald's","Rating":3,"postalCode":77901,"websites":"http://mcdonalds.com,http://www.mcdonalds.com/?cid=RF:YXT_FM:TP::Yext:Referral","uid":161.0}
{"_id":{"$oid":"5b3de88eef7b55041d8747c8"},"address":"2 N Mineral St","city":"Keyser","zonal_area":"SOUTHEAST-US","province":"WV","country":"US","latitude":39.44023,"longitude":-78.97744,"name":"Subway","Rating":3,"postalCode":26726,"websites":"http://www.subway.com","uid":162.0}
{"_id":{"$oid":"5b3de88eef7b55041d8747c9"},"address":"1845 Fry Rd","city":"Katy","zonal_area":"SOUTHWEST-US","province":"TX","country":"US","latitude":29.79332,"longitude":-95.71956,"name":"McDonald's","Rating":2,"postalCode":77449,"websites":"http://mcdonalds.com,http://www.mcdonalds.com/?cid=RF:YXT_FM:TP::Yext:Referral","uid":163.0}
{"_id":{"$oid":"5b3de88eef7b55041d8747ca"},"address":"100 W Loop 340","city":"Woodway","zonal_area":"SOUTHWEST-US","province":"TX","country":"US","latitude":31.51211,"longitude":-97.18724,"name":"Whataburger","Rating":2,"postalCode":76712,"websites":"https://locations.whataburger.com/tx/waco/100-west-loop-340.html/?utm_source=yextpagesandutm_medium=locallistingsandutm_campaign=yextpages,http://www.whataburger.com","uid":164.0}
{"_id":{"$oid":"5b3de88eef7b55041d8747cb"},"address":"104 E Grant St","city":"Roma","zonal_area":"SOUTHWEST-US","province":"TX","country":"US","latitude":26.40269,"longitude":-99.01235,"name":"McDonald's","Rating":3,"postalCode":78584,"websites":"http://www.mcdonalds.com/?cid=RF:YXT_FM:TP::Yext:Referral,http://www.mcdonalds.com","uid":165.0}
{"_id":{"$oid":"5b3de88eef7b55041d8747cc"},"address":"441 Craig St","city":"Buffalo","zonal_area":"SOUTHWEST-US","province":"TX","country":"US","latitude":31.45096,"longitude":-96.07826,"name":"McDonalds","Rating":3,"postalCode":75831,"websites":"http://www.mcdonalds.com/?cid=RF:YXT_FM:TP::Yext:Referral","uid":166.0}
{"_id":{"$oid":"5b3de88eef7b55041d8747cd"},"address":"2111 Ave F NW US 287","city":"Childress","zonal_area":"SOUTHWEST-US","province":"TX","country":"US","latitude":34.43504,"longitude":-100.22784,"name":"McDonald's","Rating":5,"postalCode":79201,"websites":"http://mcdonalds.com,http://www.mcdonalds.com/?cid=RF:YXT_FM:TP::Yext:Referral","uid":167.0}
{"_id":{"$oid":"5b3de88eef7b55041d8747ce"},"address":"1005 S 14th St","city":"Kingsville","zonal_area":"SOUTHWEST-US","province":"TX","country":"US","latitude":27.50749,"longitude":-97.85649,"name":"Taco Bell","Rating":3,"postalCode":78363,"websites":"http://www.tacobell.com,https://locations.tacobell.com/tx/kingsville/1005-south-14th-street.html?utm_source=yextandutm_campaign=yextpowerlistingsandutm_medium=referralandutm_term=016215andutm_content=website","uid":168.0}
{"_id":{"$oid":"5b3de88eef7b55041d8747cf"},"address":"4622 S Fort Hood St","city":"Killeen","zonal_area":"SOUTHWEST-US","province":"TX","country":"US","latitude":31.07809,"longitude":-97.75698,"name":"McDonald's","Rating":2,"postalCode":76542,"websites":"http://www.mcdonalds.com/?cid=RF:YXT_FM:TP::Yext:Referral,http://mcdonalds.com","uid":169.0}
{"_id":{"$oid":"5b3de88eef7b55041d8747d0"},"address":"404 N Wood St","city":"Gilmer","zonal_area":"SOUTHWEST-US","province":"TX","country":"US","latitude":32.73227,"longitude":-94.94278,"name":"Taco Bell","Rating":3,"postalCode":75644,"websites":"http://www.tacobell.com,https://locations.tacobell.com/tx/gilmer/404-north-wood.html?utm_source=yextandutm_campaign=yextpowerlistingsandutm_medium=referralandutm_term=018402andutm_content=website","uid":170.0}
{"_id":{"$oid":"5b3de88eef7b55041d8747d1"},"address":"7104 S Fry Rd","city":"Katy","zonal_area":"SOUTHWEST-US","province":"TX","country":"US","latitude":29.71927,"longitude":-95.78177,"name":"McDonald's","Rating":2,"postalCode":77494,"websites":"http://mcdonalds.com,http://www.mcdonalds.com/?cid=RF:YXT_FM:TP::Yext:Referral","uid":171.0}
{"_id":{"$oid":"5b3de88eef7b55041d8747d2"},"address":"1265 S Wheeler St","city":"Jasper","zonal_area":"SOUTHWEST-US","province":"TX","country":"US","latitude":30.91192,"longitude":-93.99569,"name":"McDonald's","Rating":4,"postalCode":75951,"websites":"http://www.mcdonalds.com/?cid=RF:YXT_FM:TP::Yext:Referral,http://mcdonalds.com","uid":172.0}
{"_id":{"$oid":"5b3de88eef7b55041d8747d3"},"address":"307 E Wise St","city":"Bowie","zonal_area":"SOUTHWEST-US","province":"TX","country":"US","latitude":33.557809,"longitude":-97.846268,"name":"McDonald's","Rating":1,"postalCode":76230,"websites":"http://mcdonalds.com,http://www.mcdonalds.com/?cid=RF:YXT_FM:TP::Yext:Referral","uid":173.0}
{"_id":{"$oid":"5b3de88eef7b55041d8747d4"},"address":"705 N McCoy Blvd","city":"New Boston","zonal_area":"SOUTHWEST-US","province":"TX","country":"US","latitude":33.4717,"longitude":-94.4091,"name":"Taco Bell","Rating":2,"postalCode":75570,"websites":"http://www.tacobell.com,https://locations.tacobell.com/tx/new-boston/705-n--mccoy-boulevard.html?utm_source=yextandutm_campaign=yextpowerlistingsandutm_medium=referralandutm_term=G135401andutm_content=website","uid":174.0}
{"_id":{"$oid":"5b3de88eef7b55041d8747d5"},"address":"821 S Sam Houston Blvd","city":"San Benito","zonal_area":"SOUTHWEST-US","province":"TX","country":"US","latitude":26.12559,"longitude":-97.63723,"name":"McDonald's","Rating":1,"postalCode":78586,"websites":"http://www.mcdonalds.com,http://www.mcdonalds.com/?cid=RF:YXT_FM:TP::Yext:Referral","uid":175.0}
{"_id":{"$oid":"5b3de88eef7b55041d8747d6"},"address":"2652 S Nc 127 Hwy","city":"Hickory","zonal_area":"SOUTHEAST-US","province":"NC","country":"US","latitude":35.69172,"longitude":-81.35675,"name":"Domino's Pizza","Rating":3,"postalCode":28602,"websites":"https://www.dominos.com/en/?redirect=homepageandutm_source=locallistingsandutm_medium=loclistandutm_campaign=localmaps,https://www.dominos.com/en/?redirect=homepage,https://www.dominos.com/en/?redirect=homepageandutm_source=yextandutm_medium=loclistandutm_campaign=localmaps","uid":176.0}
{"_id":{"$oid":"5b3de88eef7b55041d8747d7"},"address":"1696 N Center St","city":"Lonoke","zonal_area":"SOUTHEAST-US","province":"AR","country":"US","latitude":34.79816,"longitude":-91.89096,"name":"SONIC Drive In","Rating":2,"postalCode":72086,"websites":"https://locations.sonicdrivein.com/ar/lonoke/1696-north-center-street.html","uid":177.0}
{"_id":{"$oid":"5b3de88eef7b55041d8747d8"},"address":"651 Terry Pkwy Ste 101","city":"Gretna","zonal_area":"SOUTHEAST-US","province":"LA","country":"US","latitude":29.90228,"longitude":-90.03,"name":"Domino's Pizza","Rating":3,"postalCode":70056,"websites":"https://www.dominos.com/en/?redirect=homepage,https://www.dominos.com/en/?redirect=homepageandutm_source=locallistingsandutm_medium=loclistandutm_campaign=localmaps,https://www.dominos.com/en/?redirect=homepageandutm_source=yextandutm_medium=loclistandutm_campaign=localmaps","uid":178.0}
{"_id":{"$oid":"5b3de88eef7b55041d8747d9"},"address":"1449 Papillion Dr","city":"Papillion","zonal_area":"MIDWEST-US","province":"NE","country":"US","latitude":41.141563,"longitude":-96.01308,"name":"Domino's Pizza","Rating":1,"postalCode":68133,"websites":"https://www.dominos.com/en/?redirect=homepage,https://www.dominos.com/en/?redirect=homepageandutm_source=yextandutm_medium=loclistandutm_campaign=localmaps","uid":179.0}
{"_id":{"$oid":"5b3de88eef7b55041d8747da"},"address":"323 N 114th St","city":"Omaha","zonal_area":"MIDWEST-US","province":"NE","country":"US","latitude":41.2606,"longitude":-96.09081,"name":"Domino's Pizza","Rating":3,"postalCode":68154,"websites":"https://www.dominos.com/en/?redirect=homepage,https://www.dominos.com/en/?redirect=homepageandutm_source=locallistingsandutm_medium=loclistandutm_campaign=localmaps,https://www.dominos.com/en/?redirect=homepageandutm_source=yextandutm_medium=loclistandutm_campaign=localmaps","uid":180.0}
{"_id":{"$oid":"5b3de88eef7b55041d8747db"},"address":"102 Pavilion Pkwy","city":"Newport","zonal_area":"SOUTHEAST-US","province":"KY","country":"US","latitude":39.09245,"longitude":-84.4806,"name":"Domino's Pizza","Rating":5,"postalCode":41071,"websites":"https://www.dominos.com/en/?redirect=homepage,https://www.dominos.com/en/?redirect=homepageandutm_source=locallistingsandutm_medium=loclistandutm_campaign=localmaps,https://www.dominos.com/en/?redirect=homepageandutm_source=yextandutm_medium=loclistandutm_campaign=localmaps","uid":181.0}
{"_id":{"$oid":"5b3de88eef7b55041d8747dc"},"address":"998 Nc Highway 150 W A","city":"Greensboro","zonal_area":"SOUTHEAST-US","province":"NC","country":"US","latitude":36.20043,"longitude":-79.84375,"name":"Domino's Pizza","Rating":5,"postalCode":27455,"websites":"https://www.dominos.com/en/?redirect=homepageandutm_source=locallistingsandutm_medium=loclistandutm_campaign=localmaps,https://www.dominos.com/en/?redirect=homepage,https://www.dominos.com/en/?redirect=homepageandutm_source=yextandutm_medium=loclistandutm_campaign=localmaps","uid":182.0}
{"_id":{"$oid":"5b3de88eef7b55041d8747dd"},"address":"1518 N Ed Carey Dr","city":"Harlingen","zonal_area":"SOUTHWEST-US","province":"TX","country":"US","latitude":26.17221,"longitude":-97.67362,"name":"Taco Bell","Rating":4,"postalCode":78550,"websites":"http://www.tacobell.com,https://locations.tacobell.com/tx/harlingen/1518-ed-carey-road.html?utm_source=yextandutm_campaign=yextpowerlistingsandutm_medium=referralandutm_term=016925andutm_content=website","uid":183.0}
{"_id":{"$oid":"5b3de88eef7b55041d8747de"},"address":"1501 7th St","city":"Las Vegas","zonal_area":"SOUTHWEST-US","province":"NM","country":"US","latitude":35.60569,"longitude":-105.22363,"name":"McDonald's","Rating":1,"postalCode":87701,"websites":"http://www.mcdonalds.com/?cid=RF:YXT_FM:TP::Yext:Referral,http://mcdonalds.com","uid":184.0}
{"_id":{"$oid":"5b3de88eef7b55041d8747df"},"address":"1130 Burlington St","city":"Holdrege","zonal_area":"MIDWEST-US","province":"NE","country":"US","latitude":40.42485,"longitude":-99.3797,"name":"Sonic Drive-In","Rating":3,"postalCode":68949,"websites":"https://locations.sonicdrivein.com/ne/holdrege/1130-burlington-street.html","uid":185.0}
{"_id":{"$oid":"5b3de88eef7b55041d8747e0"},"address":"1630 S Broadway","city":"Minot","zonal_area":"MIDWEST-US","province":"ND","country":"US","latitude":48.21665,"longitude":-101.29666,"name":"Taco Bell","Rating":3,"postalCode":58701,"websites":"http://www.tacobell.com,https://locations.tacobell.com/nd/minot/1630-south-broadway.html?utm_source=yextandutm_campaign=yextpowerlistingsandutm_medium=referralandutm_term=017160andutm_content=website","uid":186.0}
{"_id":{"$oid":"5b3de88eef7b55041d8747e1"},"address":"801 Dakota Ave","city":"Wahpeton","zonal_area":"MIDWEST-US","province":"ND","country":"US","latitude":46.26365,"longitude":-96.61158,"name":"Taco John's","Rating":4,"postalCode":58075,"websites":"http://locations.tacojohns.com/nd/wahpeton/801-dakota-avenue.html,https://www.tacojohns.com","uid":187.0}
{"_id":{"$oid":"5b3de88eef7b55041d8747e2"},"address":"223 N Josephine Ave","city":"Madison","zonal_area":"MIDWEST-US","province":"SD","country":"US","latitude":44.006216,"longitude":-97.118242,"name":"Taco John's","Rating":4,"postalCode":57042,"websites":"https://www.tacojohns.com,http://locations.tacojohns.com/sd/madison/223-n-josephine-avenue.html","uid":188.0}
{"_id":{"$oid":"5b3de88eef7b55041d8747e3"},"address":"327 S Canal St","city":"Carlsbad","zonal_area":"SOUTHWEST-US","province":"NM","country":"US","latitude":32.41713,"longitude":-104.2292,"name":"McDonalds","Rating":4,"postalCode":88220,"websites":"http://mcdonalds.com,http://www.mcdonalds.com/?cid=RF:YXT_FM:TP::Yext:Referral","uid":189.0}
{"_id":{"$oid":"5b3de88eef7b55041d8747e4"},"address":"2005 E Madison Ave","city":"Bastrop","zonal_area":"SOUTHEAST-US","province":"LA","country":"US","latitude":32.77873,"longitude":-91.8896,"name":"McDonald's","Rating":4,"postalCode":71220,"websites":"http://www.mcdonalds.com/?cid=RF:YXT_FM:TP::Yext:Referral,http://www.mcdonalds.com","uid":190.0}
{"_id":{"$oid":"5b3de88eef7b55041d8747e5"},"address":"2000 N Date St","city":"Truth Or Consequences","zonal_area":"SOUTHWEST-US","province":"NM","country":"US","latitude":33.15244,"longitude":-107.24684,"name":"Sonic Drive-In","Rating":3,"postalCode":87901,"websites":"https://locations.sonicdrivein.com/nm/truth-or-consequences/2000-north-date-street.html","uid":191.0}
{"_id":{"$oid":"5b3de88eef7b55041d8747e6"},"address":"320 NW 2nd St","city":"Madison","zonal_area":"MIDWEST-US","province":"SD","country":"US","latitude":44.007172,"longitude":-97.115957,"name":"McDonald's","Rating":1,"postalCode":57042,"websites":"http://mcdonalds.com,http://www.mcdonalds.com/?cid=RF:YXT_FM:TP::Yext:Referral","uid":192.0}
{"_id":{"$oid":"5b3de88eef7b55041d8747e7"},"address":"681 W Bridge St","city":"Owatonna","zonal_area":"MIDWEST-US","province":"MN","country":"US","latitude":44.084414,"longitude":-93.241752,"name":"Taco Bell","Rating":1,"postalCode":55060,"websites":"https://locations.tacobell.com/mn/owatonna/681-west-bridge-street.html?utm_source=yextandutm_campaign=yextpowerlistingsandutm_medium=referralandutm_term=016351andutm_content=website,http://www.tacobell.com","uid":193.0}
{"_id":{"$oid":"5b3de88eef7b55041d8747e8"},"address":"2121 E Grand Ave","city":"Laramie","zonal_area":"WEST-US","province":"WY","country":"US","latitude":41.30959,"longitude":-105.56668,"name":"Taco Bell","Rating":5,"postalCode":82070,"websites":"http://www.tacobell.com,https://locations.tacobell.com/wy/laramie/2121-grand-ave.html?utm_source=yextandutm_campaign=yextpowerlistingsandutm_medium=referralandutm_term=023073andutm_content=website","uid":194.0}
{"_id":{"$oid":"5b3de88eef7b55041d8747e9"},"address":"1401 Mill St","city":"Belle Fourche","zonal_area":"MIDWEST-US","province":"SD","country":"US","latitude":44.66263,"longitude":-103.85504,"name":"Taco John's","Rating":2,"postalCode":57717,"websites":"https://www.tacojohns.com,http://locations.tacojohns.com/sd/belle-fourche/1401-mill-street.html","uid":195.0}
{"_id":{"$oid":"5b3de88eef7b55041d8747ea"},"address":"1650 E Bert Kouns Industrial Loop","city":"Shreveport","zonal_area":"SOUTHEAST-US","province":"LA","country":"US","latitude":32.4316,"longitude":-93.71381,"name":"Whataburger","Rating":1,"postalCode":71105,"websites":"https://locations.whataburger.com/la/shreveport/1650-bert-kouns-road.html/?utm_source=yextpagesandutm_medium=locallistingsandutm_campaign=yextpages,https://locations.whataburger.com/la/shreveport/1650-bert-kouns-road.html/","uid":196.0}
{"_id":{"$oid":"5b3de88eef7b55041d8747eb"},"address":"600 N Grand Ave","city":"Tahlequah","zonal_area":"SOUTHWEST-US","province":"OK","country":"US","latitude":35.9196,"longitude":-94.96673,"name":"Northeastern State University","Rating":5,"postalCode":74464,"websites":"https://www.nsuok.edu/muskogee.aspx","uid":197.0}
{"_id":{"$oid":"5b3de88eef7b55041d8747ec"},"address":"507 MacArthur Dr","city":"Alexandria","zonal_area":"SOUTHEAST-US","province":"LA","country":"US","latitude":31.29621,"longitude":-92.478,"name":"McDonald's","Rating":2,"postalCode":71303,"websites":"http://mcdonalds.com,http://www.mcdonalds.com/?cid=RF:YXT_FM:TP::Yext:Referral","uid":198.0}
{"_id":{"$oid":"5b3de88eef7b55041d8747ed"},"address":"245 High St","city":"Ellsworth","zonal_area":"NORTHEAST-US","province":"ME","country":"US","latitude":44.5325,"longitude":-68.408,"name":"Taco Bell","Rating":5,"postalCode":4605,"websites":"http://www.tacobell.com,https://locations.tacobell.com/me/ellsworth/245-high-street.html?utm_source=yextandutm_campaign=yextpowerlistingsandutm_medium=referralandutm_term=E277001andutm_content=website","uid":199.0}
{"_id":{"$oid":"5b3de88eef7b55041d8747ee"},"address":"259 High St","city":"Ellsworth","zonal_area":"NORTHEAST-US","province":"ME","country":"US","latitude":44.53099,"longitude":-68.40688,"name":"McDonald's","Rating":3,"postalCode":4605,"websites":"http://www.mcdonalds.com/?cid=RF:YXT_FM:TP::Yext:Referral,http://mcdonalds.com","uid":200.0}
{"_id":{"$oid":"5b3de88eef7b55041d8747ef"},"address":"6001 San Mateo Blvd Ne Ste G1","city":"Albuquerque","zonal_area":"SOUTHWEST-US","province":"NM","country":"US","latitude":35.14515,"longitude":-106.58797,"name":"Pizza Hut","Rating":2,"postalCode":87109,"websites":"http://www.pizzahut.com","uid":201.0}
{"_id":{"$oid":"5b3de88eef7b55041d8747f0"},"address":"304 Keyser Ave","city":"Natchitoches","zonal_area":"SOUTHEAST-US","province":"LA","country":"US","latitude":31.75412,"longitude":-93.08107,"name":"McDonald's","Rating":2,"postalCode":71457,"websites":"http://mcdonalds.com,http://www.mcdonalds.com/?cid=RF:YXT_FM:TP::Yext:Referral","uid":202.0}
{"_id":{"$oid":"5b3de88eef7b55041d8747f1"},"address":"1306 S Thompson St","city":"Springdale","zonal_area":"SOUTHEAST-US","province":"AR","country":"US","latitude":36.17034,"longitude":-94.13983,"name":"SONIC Drive In","Rating":1,"postalCode":72764,"websites":"https://locations.sonicdrivein.com/ar/springdale/1306-s--thompson-street.html","uid":203.0}
{"_id":{"$oid":"5b3de88eef7b55041d8747f2"},"address":"1310 E Main St","city":"Stigler","zonal_area":"SOUTHWEST-US","province":"OK","country":"US","latitude":35.25441,"longitude":-95.10962,"name":"McDonald's","Rating":1,"postalCode":74462,"websites":"http://www.mcdonalds.com/?cid=RF:YXT_FM:TP::Yext:Referral,http://t.co/FMvCN6Rr2V","uid":204.0}
{"_id":{"$oid":"5b3de88eef7b55041d8747f3"},"address":"192 Water St","city":"Gardiner","zonal_area":"NORTHEAST-US","province":"ME","country":"US","latitude":44.22938,"longitude":-69.77157,"name":"Domino's Pizza","Rating":4,"postalCode":4345,"websites":"https://www.dominos.com/en/?redirect=homepage,https://www.dominos.com/en/?redirect=homepageandutm_source=locallistingsandutm_medium=loclistandutm_campaign=localmaps,https://www.dominos.com/en/?redirect=homepageandutm_source=yextandutm_medium=loclistandutm_campaign=localmaps","uid":205.0}
{"_id":{"$oid":"5b3de88eef7b55041d8747f4"},"address":"1510 S Mississippi Ave","city":"Atoka","zonal_area":"SOUTHWEST-US","province":"OK","country":"US","latitude":34.3717,"longitude":-96.13563,"name":"Taco Bell","Rating":5,"postalCode":74525,"websites":"https://locations.tacobell.com/ok/atoka/1510-s-mississippi-st.html?utm_source=yextandutm_campaign=yextpowerlistingsandutm_medium=referralandutm_term=029375andutm_content=website","uid":206.0}
{"_id":{"$oid":"5b3de88eef7b55041d8747f5"},"address":"207 N Broadway St","city":"Checotah","zonal_area":"SOUTHWEST-US","province":"OK","country":"US","latitude":35.47132,"longitude":-95.52156,"name":"Subway","Rating":4,"postalCode":74426,"websites":"http://www.subway.com,http://subway.com","uid":207.0}
{"_id":{"$oid":"5b3de88eef7b55041d8747f6"},"address":"4105 Main St","city":"Springfield","zonal_area":"WEST-US","province":"OR","country":"US","latitude":44.04537,"longitude":-122.96621,"name":"Domino's Pizza","Rating":5,"postalCode":97478,"websites":"https://www.dominos.com/en/?redirect=homepage,https://www.dominos.com/en/?redirect=homepageandutm_source=locallistingsandutm_medium=loclistandutm_campaign=localmaps,https://www.dominos.com/en/?redirect=homepageandutm_source=yextandutm_medium=loclistandutm_campaign=localmaps","uid":208.0}
{"_id":{"$oid":"5b3de88eef7b55041d8747f7"},"address":"499 Canal St","city":"Brattleboro","zonal_area":"NORTHEAST-US","province":"VT","country":"US","latitude":42.83924,"longitude":-72.56684,"name":"Domino's Pizza","Rating":5,"postalCode":5301,"websites":"http://www.dominos.com,https://www.dominos.com/en/?redirect=homepageandutm_source=locallistingsandutm_medium=loclistandutm_campaign=localmaps,https://www.dominos.com/en/?redirect=homepageandutm_source=yextandutm_medium=loclistandutm_campaign=localmaps","uid":209.0}
{"_id":{"$oid":"5b3de88eef7b55041d8747f8"},"address":"105 Blake Dr","city":"Wagoner","zonal_area":"SOUTHWEST-US","province":"OK","country":"US","latitude":35.96083,"longitude":-95.39476,"name":"SONIC Drive In","Rating":2,"postalCode":74467,"websites":"https://locations.sonicdrivein.com/ok/wagoner/105-north-blake-drive.html","uid":210.0}
{"_id":{"$oid":"5b3de88eef7b55041d8747f9"},"address":"5704 Jackson St","city":"Alexandria","zonal_area":"SOUTHEAST-US","province":"LA","country":"US","latitude":31.26788,"longitude":-92.48741,"name":"Subway","Rating":3,"postalCode":71303,"websites":"http://www.subway.com","uid":211.0}
{"_id":{"$oid":"5b3de88eef7b55041d8747fa"},"address":"603 E Main St","city":"Endicott","zonal_area":"NORTHEAST-US","province":"NY","country":"US","latitude":42.09591,"longitude":-76.05453,"name":"McDonald's","Rating":3,"postalCode":13760,"websites":"http://mcdonalds.com,http://www.mcdonalds.com/?cid=RF:YXT_FM:TP::Yext:Referral","uid":212.0}
{"_id":{"$oid":"5b3de88eef7b55041d8747fb"},"address":"1052 Sagamore Pkwy W","city":"West Lafayette","zonal_area":"MIDWEST-US","province":"IN","country":"US","latitude":40.45384,"longitude":-86.91841,"name":"Jimmy John's","Rating":2,"postalCode":47906,"websites":"http://www.jimmyjohns.com","uid":213.0}
{"_id":{"$oid":"5b3de88eef7b55041d8747fc"},"address":"363 Swanton Rd","city":"Saint Albans","zonal_area":"NORTHEAST-US","province":"VT","country":"US","latitude":44.8396,"longitude":-73.08202,"name":"Taco Bell","Rating":5,"postalCode":5478,"websites":"http://www.tacobell.com,https://locations.tacobell.com/vt/saint-albans/363-swanton-road.html?utm_source=yextandutm_campaign=yextpowerlistingsandutm_medium=referralandutm_term=E715018andutm_content=website","uid":214.0}
{"_id":{"$oid":"5b3de88eef7b55041d8747fd"},"address":"580 Shelburne Rd Ste 11","city":"Burlington","zonal_area":"NORTHEAST-US","province":"VT","country":"US","latitude":44.44926,"longitude":-73.20896,"name":"SUBWAY","Rating":2,"postalCode":5401,"websites":"http://subway.com,http://www.subway.com","uid":215.0}
{"_id":{"$oid":"5b3de88eef7b55041d8747fe"},"address":"2201 S Park Ave Ste 5","city":"Alexandria","zonal_area":"MIDWEST-US","province":"IN","country":"US","latitude":40.24008,"longitude":-85.66922,"name":"Pizza Hut","Rating":1,"postalCode":46001,"websites":"http://www.pizzahut.com","uid":216.0}
{"_id":{"$oid":"5b3de88eef7b55041d8747ff"},"address":"25 Berlin St","city":"Montpelier","zonal_area":"NORTHEAST-US","province":"VT","country":"US","latitude":44.25664,"longitude":-72.57701,"name":"Domino's Pizza","Rating":5,"postalCode":5602,"websites":"https://www.dominos.com/en/?redirect=homepage,https://www.dominos.com/en/?redirect=homepageandutm_source=locallistingsandutm_medium=loclistandutm_campaign=localmaps,https://www.dominos.com/en/?redirect=homepageandutm_source=yextandutm_medium=loclistandutm_campaign=localmaps","uid":217.0}
{"_id":{"$oid":"5b3de88eef7b55041d874800"},"address":"313 2nd St","city":"North Wilkesboro","zonal_area":"SOUTHEAST-US","province":"NC","country":"US","latitude":36.16562,"longitude":-81.13658,"name":"Wendy's","Rating":4,"postalCode":28659,"websites":"http://www.wendys.com","uid":218.0}
{"_id":{"$oid":"5b3de88eef7b55041d874801"},"address":"127 North St","city":"Houlton","zonal_area":"NORTHEAST-US","province":"ME","country":"US","latitude":46.13483,"longitude":-67.83927,"name":"Domino's Pizza","Rating":5,"postalCode":4730,"websites":"https://www.dominos.com/en/?redirect=homepageandutm_source=locallistingsandutm_medium=loclistandutm_campaign=localmaps,https://www.dominos.com/en/?redirect=homepage,https://www.dominos.com/en/?redirect=homepageandutm_source=yextandutm_medium=loclistandutm_campaign=localmaps","uid":219.0}
{"_id":{"$oid":"5b3de88eef7b55041d874802"},"address":"1215 2nd Ave W","city":"Williston","zonal_area":"MIDWEST-US","province":"ND","country":"US","latitude":48.1566,"longitude":-103.6262,"name":"Taco John's","Rating":2,"postalCode":58801,"websites":"http://locations.tacojohns.com/nd/williston/1215-2nd-avenue-w.html","uid":220.0}
{"_id":{"$oid":"5b3de88eef7b55041d874803"},"address":"7201 Two Notch Rd","city":"Columbia","zonal_area":"SOUTHEAST-US","province":"SC","country":"US","latitude":34.064617,"longitude":-80.95748,"name":"Sarku Japan","Rating":2,"postalCode":29223,"websites":"http://www.sarkujapan.com","uid":221.0}
{"_id":{"$oid":"5b3de88eef7b55041d874804"},"address":"875 4th St SW","city":"Mason City","zonal_area":"MIDWEST-US","province":"IA","country":"US","latitude":43.14776,"longitude":-93.21414,"name":"Taco Bell","Rating":3,"postalCode":50401,"websites":"http://www.tacobell.com,https://locations.tacobell.com/ia/mason-city/795-4th-st-sw.html?utm_source=yextandutm_campaign=yextpowerlistingsandutm_medium=referralandutm_term=026758andutm_content=website","uid":222.0}
{"_id":{"$oid":"5b3de88eef7b55041d874805"},"address":"320 11th Street Sw Plz","city":"Spencer","zonal_area":"MIDWEST-US","province":"IA","country":"US","latitude":43.12617,"longitude":-95.15025,"name":"Taco Bell","Rating":2,"postalCode":51301,"websites":"http://www.tacobell.com,https://locations.tacobell.com/ia/spencer/320-11th-st-sw-plaza.html?utm_source=yextandutm_campaign=yextpowerlistingsandutm_medium=referralandutm_term=020871andutm_content=website","uid":223.0}
{"_id":{"$oid":"5b3de88eef7b55041d874806"},"address":"120 E Jefferson St","city":"Washington","zonal_area":"MIDWEST-US","province":"IA","country":"US","latitude":41.29768,"longitude":-91.69085,"name":"Taco Bell","Rating":3,"postalCode":52353,"websites":"http://www.tacobell.com,https://locations.tacobell.com/ia/washington/120-east-jefferson.html?utm_source=yextandutm_campaign=yextpowerlistingsandutm_medium=referralandutm_term=G160006andutm_content=website","uid":224.0}
{"_id":{"$oid":"5b3de88eef7b55041d874807"},"address":"6694 Highway 431 S","city":"Owens Cross Roads","zonal_area":"SOUTHEAST-US","province":"AL","country":"US","latitude":34.657839,"longitude":-86.483357,"name":"Taco Bell","Rating":1,"postalCode":35763,"websites":"http://www.tacobell.com","uid":225.0}
{"_id":{"$oid":"5b3de88eef7b55041d874808"},"address":"2721a Emanuel Church Rd","city":"West Columbia","zonal_area":"SOUTHEAST-US","province":"SC","country":"US","latitude":33.93912,"longitude":-81.150724,"name":"Pizza Hut","Rating":3,"postalCode":29170,"websites":"http://www.pizzahut.com","uid":226.0}
{"_id":{"$oid":"5b3de88eef7b55041d874809"},"address":"837 W Morton Ave","city":"Jacksonville","zonal_area":"MIDWEST-US","province":"IL","country":"US","latitude":39.723201,"longitude":-90.240464,"name":"Taco Bell","Rating":2,"postalCode":62650,"websites":"http://www.tacobell.com,https://locations.tacobell.com/il/jacksonville/837-w-morton.html?utm_source=yextandutm_campaign=yextpowerlistingsandutm_medium=referralandutm_term=004982andutm_content=website","uid":227.0}
{"_id":{"$oid":"5b3de88eef7b55041d87480a"},"address":"2013 US Route 20","city":"Seneca Falls","zonal_area":"NORTHEAST-US","province":"NY","country":"US","latitude":42.9037,"longitude":-76.8312,"name":"Burger King","Rating":3,"postalCode":13148,"websites":"http://www.bk.com,https://locations.bk.com/ny/seneca-falls/2013-route-5.html,https://www.bk.com","uid":228.0}
{"_id":{"$oid":"5b3de88eef7b55041d87480b"},"address":"2211 W Dekalb St","city":"Camden","zonal_area":"SOUTHEAST-US","province":"SC","country":"US","latitude":34.24907,"longitude":-80.64598,"name":"Chick-fil-A","Rating":5,"postalCode":29020,"websites":"http://www.chick-fil-a.com/camden,http://www.chick-fil-a.com","uid":229.0}
{"_id":{"$oid":"5b3de88eef7b55041d87480c"},"address":"1400 S Higley Blvd","city":"Rawlins","zonal_area":"WEST-US","province":"WY","country":"US","latitude":41.77618,"longitude":-107.22593,"name":"Subway","Rating":2,"postalCode":82301,"websites":"https://www.ta-petro.com","uid":230.0}
{"_id":{"$oid":"5b3de88eef7b55041d87480d"},"address":"3 Spaulding Ave","city":"Malone","zonal_area":"NORTHEAST-US","province":"NY","country":"US","latitude":44.84987,"longitude":-74.28485,"name":"Domino's Pizza","Rating":3,"postalCode":12953,"websites":"http://www.dominos.com","uid":231.0}
{"_id":{"$oid":"5b3de88eef7b55041d87480e"},"address":"80 Clinton Plz","city":"Clinton","zonal_area":"MIDWEST-US","province":"IL","country":"US","latitude":40.14714,"longitude":-88.97722,"name":"Taco Bell","Rating":1,"postalCode":61727,"websites":"http://www.tacobell.com,https://locations.tacobell.com/il/clinton/80-clinton-plaza.html?utm_source=yextandutm_campaign=yextpowerlistingsandutm_medium=referralandutm_term=D333054andutm_content=website","uid":232.0}
{"_id":{"$oid":"5b3de88eef7b55041d87480f"},"address":"776 E Main St","city":"Cobleskill","zonal_area":"NORTHEAST-US","province":"NY","country":"US","latitude":42.67962,"longitude":-74.47452,"name":"Taco Bell","Rating":1,"postalCode":12043,"websites":"http://www.tacobell.com,https://locations.tacobell.com/ny/cobleskill/776-east-main-street.html?utm_source=yextandutm_campaign=yextpowerlistingsandutm_medium=referralandutm_term=026358andutm_content=website","uid":233.0}
{"_id":{"$oid":"5b3de88eef7b55041d874810"},"address":"1134 Paterson St","city":"Ogdensburg","zonal_area":"NORTHEAST-US","province":"NY","country":"US","latitude":44.690205,"longitude":-75.4774,"name":"McDonald's","Rating":3,"postalCode":13669,"websites":"http://www.mcdonalds.com/?cid=RF:YXT_FM:TP::Yext:Referral,http://mcdonalds.com","uid":234.0}
{"_id":{"$oid":"5b3de88eef7b55041d874811"},"address":"201 Maple City Dr","city":"Monmouth","zonal_area":"MIDWEST-US","province":"IL","country":"US","latitude":40.9107,"longitude":-90.64483,"name":"Taco Bell","Rating":5,"postalCode":61462,"websites":"http://www.tacobell.com,https://locations.tacobell.com/il/monmouth/201-maple-city-drive.html?utm_source=yextpowerlistingsandutm_campaign=yextandutm_medium=organicandutm_term=024621andutm_content=website","uid":235.0}
{"_id":{"$oid":"5b3de88eef7b55041d874812"},"address":"31305 Vine St","city":"Eastlake","zonal_area":"MIDWEST-US","province":"OH","country":"US","latitude":41.642781,"longitude":-81.468481,"name":"Burger King","Rating":5,"postalCode":44095,"websites":"http://www.bk.com","uid":236.0}
{"_id":{"$oid":"5b3de88eef7b55041d874813"},"address":"2118 Missouri Blvd","city":"Jefferson City","zonal_area":"MIDWEST-US","province":"MO","country":"US","latitude":38.58174,"longitude":-92.20713,"name":"Captain D's","Rating":5,"postalCode":65109,"websites":"https://locations.captainds.com/mo/jefferson-city/2118-missouri-blvd.html,http://www.captainds.com","uid":237.0}
{"_id":{"$oid":"5b3de88eef7b55041d874814"},"address":"1212 W Main St","city":"Fairfield","zonal_area":"MIDWEST-US","province":"IL","country":"US","latitude":38.37957,"longitude":-88.37697,"name":"McDonald's","Rating":1,"postalCode":62837,"websites":"http://www.mcdonalds.com,http://www.mcdonalds.com/?cid=RF:YXT_FM:TP::Yext:Referral","uid":238.0}
{"_id":{"$oid":"5b3de88eef7b55041d874815"},"address":"2333 Missouri Blvd","city":"Jefferson City","zonal_area":"MIDWEST-US","province":"MO","country":"US","latitude":38.58134,"longitude":-92.21398,"name":"Jack in the Box","Rating":5,"postalCode":65109,"websites":"http://www.jackinthebox.com","uid":239.0}
{"_id":{"$oid":"5b3de88eef7b55041d874816"},"address":"550 E Industrial Park Rd","city":"Murphysboro","zonal_area":"MIDWEST-US","province":"IL","country":"US","latitude":37.78839,"longitude":-89.32524,"name":"McDonald's","Rating":3,"postalCode":62966,"websites":"http://mcdonalds.com,http://www.mcdonalds.com/?cid=RF:YXT_FM:TP::Yext:Referral","uid":240.0}
{"_id":{"$oid":"5b3de88eef7b55041d874817"},"address":"220 S Main St","city":"Atmore","zonal_area":"SOUTHEAST-US","province":"AL","country":"US","latitude":31.02181,"longitude":-87.49386,"name":"Burger King","Rating":1,"postalCode":36502,"websites":"http://www.bk.com,https://locations.bk.com/al/atmore/220-south-main-st.html,https://www.bk.com","uid":241.0}
{"_id":{"$oid":"5b3de88eef7b55041d874818"},"address":"1607 S State Route 127","city":"Greenville","zonal_area":"MIDWEST-US","province":"IL","country":"US","latitude":38.87866,"longitude":-89.39077,"name":"Taco Bell","Rating":5,"postalCode":62246,"websites":"http://www.tacobell.com,https://locations.tacobell.com/il/greenville/1607-south-route-127.html?utm_source=yextandutm_campaign=yextpowerlistingsandutm_medium=referralandutm_term=D375003andutm_content=website","uid":242.0}
{"_id":{"$oid":"5b3de88eef7b55041d874819"},"address":"51-67 E 161st St","city":"Bronx","zonal_area":"NORTHEAST-US","province":"NY","country":"US","latitude":40.828053,"longitude":-73.92529,"name":"McDonald's","Rating":1,"postalCode":10451,"websites":"http://mcdonalds.com,http://mcdonalds.com/","uid":243.0}
{"_id":{"$oid":"5b3de88eef7b55041d87481a"},"address":"253 W 42nd St","city":"New York","zonal_area":"NORTHEAST-US","province":"NY","country":"US","latitude":40.757015,"longitude":-73.98944,"name":"Five Guys","Rating":3,"postalCode":10036,"websites":"http://fiveguys.com,http://www.fiveguys.com/","uid":244.0}
{"_id":{"$oid":"5b3de88eef7b55041d87481b"},"address":"4461 Market Commons Dr","city":"Fairfax","zonal_area":"SOUTHEAST-US","province":"VA","country":"US","latitude":38.858362,"longitude":-77.376969,"name":"Pei Wei","Rating":5,"postalCode":22033,"websites":"http://www.peiwei.com","uid":245.0}
{"_id":{"$oid":"5b3de88eef7b55041d87481c"},"address":"14493 Gideon Dr","city":"Woodbridge","zonal_area":"SOUTHEAST-US","province":"VA","country":"US","latitude":38.637623,"longitude":-77.297706,"name":"Wendy's","Rating":2,"postalCode":22192,"websites":"http://www.wendys.com","uid":246.0}
{"_id":{"$oid":"5b3de88eef7b55041d87481d"},"address":"2815 Fern Valley Rd","city":"Louisville","zonal_area":"SOUTHEAST-US","province":"KY","country":"US","latitude":38.1575,"longitude":-85.7112,"name":"Arby's","Rating":1,"postalCode":40213,"websites":"http://www.arbys.com","uid":247.0}
{"_id":{"$oid":"5b3de88eef7b55041d87481e"},"address":"2800 Outer Loop","city":"Louisville","zonal_area":"SOUTHEAST-US","province":"KY","country":"US","latitude":38.13627,"longitude":-85.71168,"name":"McDonald's","Rating":1,"postalCode":40219,"websites":"http://www.mcdonalds.com/?cid=RF:YXT_FM:TP::Yext:Referral","uid":248.0}
{"_id":{"$oid":"5b3de88eef7b55041d87481f"},"address":"6501 Paramount Park Dr","city":"Louisville","zonal_area":"SOUTHEAST-US","province":"KY","country":"US","latitude":38.156731,"longitude":-85.712124,"name":"Taco Bell","Rating":5,"postalCode":40213,"websites":"https://locations.tacobell.com/ky/louisville/6501-paramount-park-dr-.html?utm_source=yextandutm_campaign=yextpowerlistingsandutm_medium=referralandutm_term=031668andutm_content=website","uid":249.0}
{"_id":{"$oid":"5b3de88eef7b55041d874820"},"address":"713 McCroskey St","city":"Nixa","zonal_area":"MIDWEST-US","province":"MO","country":"US","latitude":37.053586,"longitude":-93.302767,"name":"Arby's","Rating":1,"postalCode":65714,"websites":"http://www.arbys.com,https://locations.arbys.com/us/mo/nixa/713-mccroskey-st.html,http://locations.arbys.com/us/mo/nixa/713-mccroskey-st.html","uid":250.0}
{"_id":{"$oid":"5b3de88eef7b55041d874821"},"address":"3409 W Blue Ridge Dr","city":"Greenville","zonal_area":"SOUTHEAST-US","province":"SC","country":"US","latitude":34.852468,"longitude":-82.451033,"name":"Taco Bell","Rating":4,"postalCode":29611,"websites":"http://www.tacobell.com,https://locations.tacobell.com/sc/greenville/3409-w-blueridge-dr.html?utm_source=yextandutm_campaign=yextpowerlistingsandutm_medium=referralandutm_term=027337andutm_content=website,https://locations.tacobell.com/sc/greenville/3409-w-blueridge-dr.html?utm_source=yext\u0026utm_campaign=yextpowerlistings\u0026utm_medium=referral\u0026utm_term=027337\u0026utm_content=website","uid":251.0}
{"_id":{"$oid":"5b3de88eef7b55041d874822"},"address":"6103 White Horse Rd","city":"Greenville","zonal_area":"SOUTHEAST-US","province":"SC","country":"US","latitude":34.853023,"longitude":-82.452875,"name":"McDonald's","Rating":4,"postalCode":29611,"websites":"http://mcdonalds.com,http://www.mcdonalds.com/?cid=RF:YXT_FM:TP::Yext:Referral","uid":252.0}
{"_id":{"$oid":"5b3de88eef7b55041d874823"},"address":"2219 Madison Street","city":"Clarksville","zonal_area":"SOUTHEAST-US","province":"TN","country":"US","latitude":36.5098,"longitude":-87.2763,"name":"SONIC Drive In","Rating":5,"postalCode":37043,"websites":"https://locations.sonicdrivein.com/tn/clarksville/2219-madison-street.html","uid":253.0}
{"_id":{"$oid":"5b3de88eef7b55041d874824"},"address":"788 Riverside Drive","city":"Clarksville","zonal_area":"SOUTHEAST-US","province":"TN","country":"US","latitude":36.5401,"longitude":-87.3663,"name":"Taco Bell","Rating":2,"postalCode":37040,"websites":"http://www.tacobell.com,https://locations.tacobell.com/tn/clarksville/788-riverside-drive.html?utm_source=yext\u0026utm_campaign=yextpowerlistings\u0026utm_medium=referral\u0026utm_term=022800\u0026utm_content=website","uid":254.0}
{"_id":{"$oid":"5b3de88eef7b55041d874825"},"address":"400 Lovell Rd","city":"Knoxville","zonal_area":"SOUTHEAST-US","province":"TN","country":"US","latitude":35.90428,"longitude":-84.14246,"name":"Wendy's","Rating":2,"postalCode":37934,"websites":"http://www.wendys.com","uid":255.0}
{"_id":{"$oid":"5b3de88eef7b55041d874826"},"address":"13433 Leopard St","city":"Corpus Christi","zonal_area":"SOUTHWEST-US","province":"TX","country":"US","latitude":27.856211,"longitude":-97.629141,"name":"Burger King","Rating":2,"postalCode":78410,"websites":"http://www.bk.com","uid":256.0}
{"_id":{"$oid":"5b3de88eef7b55041d874827"},"address":"208 E Highway 90","city":"Dayton","zonal_area":"SOUTHWEST-US","province":"TX","country":"US","latitude":30.046579,"longitude":-94.886769,"name":"Jack in the Box","Rating":4,"postalCode":77535,"websites":"http://www.jackinthebox.com,https://www.jackinthebox.com/locations/3964","uid":257.0}
{"_id":{"$oid":"5b3de88eef7b55041d874828"},"address":"3305 S Campbell Ave Ste E","city":"Springfield","zonal_area":"MIDWEST-US","province":"MO","country":"US","latitude":37.15422,"longitude":-93.29613,"name":"Jimmy John's","Rating":2,"postalCode":65807,"websites":"http://www.jimmyjohns.com","uid":258.0}
{"_id":{"$oid":"5b3de88eef7b55041d874829"},"address":"1173 Murfreesboro Rd","city":"Nashville","zonal_area":"SOUTHEAST-US","province":"TN","country":"US","latitude":36.1217,"longitude":-86.7054,"name":"McDonald's","Rating":1,"postalCode":37217,"websites":"http://mcdonalds.com,http://www.mcdonalds.com/?cid=RF:YXT_FM:TP::Yext:Referral","uid":259.0}
{"_id":{"$oid":"5b3de88eef7b55041d87482a"},"address":"2203 E Hubbard St","city":"Mineral Wells","zonal_area":"SOUTHWEST-US","province":"TX","country":"US","latitude":32.8095,"longitude":-98.0953,"name":"Taco Bell","Rating":2,"postalCode":76067,"websites":"http://www.tacobell.com,https://locations.tacobell.com/tx/mineral-wells/2203-e-hubbard-st-.html?utm_source=yext\u0026utm_campaign=yextpowerlistings\u0026utm_medium=referral\u0026utm_term=027865\u0026utm_content=website","uid":260.0}
{"_id":{"$oid":"5b3de88eef7b55041d87482b"},"address":"2901 Houston Hwy","city":"Victoria","zonal_area":"SOUTHWEST-US","province":"TX","country":"US","latitude":28.8117,"longitude":-96.9739,"name":"Wendy's","Rating":4,"postalCode":77901,"websites":"http://www.wendys.com,https://locations.wendys.com/victoria-tx-8408","uid":261.0}
{"_id":{"$oid":"5b3de88eef7b55041d87482c"},